MonitoringLocationIdentifier,MonitoringLocationName,MonitoringLocationTypeName,n,MaxCl,MinCl,MeanCl,minYear,maxYear,Lat,Long,state
11113300-01-AND,BRIDGE STREET BRIDGE,Stream,6,9,0.1,5.333333333333333,1990,2015,44.39806,-70.971596,ME
11113300-01-SAC,RTE 113 BRIDGE,Stream,19,12,3,7.936842105263158,1990,2015,44.016886,-70.989931,ME
11113300-06-SFR,"BRIDGE BETWEEN ROLLINSFORD AND, ME",Stream,3,16,12,13.333333333333334,1990,1990,43.2372,-70.817553,ME
11113300-31-SFR,RTE 109 BRIDGE,Stream,3,7,7,7,1990,1990,43.552183,-70.951561,ME
11NPSWRD_WQX-NETN_ACAD_12,Lake Wood,Lake,4,5.7294290000000005,0.19306424500000002,3.00497331125,2014,2017,44.40778075,-68.268436147,ME
11NPSWRD_WQX-NETN_ACAD_13,Seawall Pond,Lake,4,160.63718297857162,19.2848,86.9282224660715,2013,2016,44.242646,-68.300741,ME
11NPSWRD_WQX-NETN_ACAD_14,Bubble Pond,Lake,36,6.573691007142842,0.175076915,4.578536998829365,2006,2017,44.34506459,-68.238855071,ME
11NPSWRD_WQX-NETN_ACAD_15,The Bowl,Lake,24,11.959108142857158,5.317500000000001,7.110772011904764,2006,2017,44.33719184,-68.193317621,ME
11NPSWRD_WQX-NETN_ACAD_17,Witch Hole Pond,Lake,36,7.5508500000000005,0.23942575500000002,4.526189362440478,2006,2017,44.40001,-68.242949,ME
11NPSWRD_WQX-NETN_ACAD_18,Duck Brook- North of Rt. 233,Stream,6,9.544403869565217,0.21562817000000004,5.299264997070396,2013,2017,44.377598,-68.245087,ME
11NPSWRD_WQX-NETN_ACAD_21,Lurvey Spring Brook (Echo Lake inlet),Stream,6,20.66998342857144,9.55281278571428,15.004188022619047,2013,2017,44.310345,-68.335625,ME
11NPSWRD_WQX-NETN_ACAD_22,Lake Wood Outlet,Stream,6,8.078739032608706,3.2698674857142844,4.541727062577639,2013,2017,44.411751,-68.273094,ME
11NPSWRD_WQX-NETN_ACAD_23,Jordan Stream- Jordan Pond outlet,Stream,2,4.64395,4.2540000000000004,4.448975000000001,2012,2012,44.321861,-68.254982,ME
11NPSWRD_WQX-NETN_ACAD_25,Lurvey Brook,Stream,6,7.5508500000000005,5.361412421428562,6.356926917857141,2013,2017,44.278832,-68.357781,ME
11NPSWRD_WQX-NETN_ACAD_26,Aunt Betty Pond inlet/Gilmore Meadow Outlet,Stream,6,4.49765291428572,2.6233,3.5757233333333334,2012,2016,44.365021,-68.27243,ME
11NPSWRD_WQX-NETN_ACAD_34,Aunt Bettys Pond,Lake,4,10.5641,6.21815282857144,7.82032570714286,2012,2015,44.37037979,-68.274668759,ME
11NPSWRD_WQX-NETN_ACAD_35,Eagle Lake,Lake,36,7.597745285714281,0.21075379500000002,5.517928630813492,2006,2017,44.363514,-68.250424,ME
11NPSWRD_WQX-NETN_ACAD_36,Jordan Pond,Lake,36,6.442986857142842,0.17374399499999998,4.562283005019841,2006,2017,44.33111,-68.255263,ME
11NPSWRD_WQX-NETN_ACAD_37,Lower Hadlock,Lake,4,13.992591042857159,7.90535,10.96402284464286,2013,2016,44.3114011,-68.289295004,ME
11NPSWRD_WQX-NETN_ACAD_38,Upper Hadlock,Lake,36,13.341556857142843,0.385706635,9.025552992440476,2006,2017,44.32136,-68.28744,ME
11NPSWRD_WQX-NETN_ACAD_39,Round Pond,Lake,4,10.208080714285721,0.28101924,6.29134998857143,2014,2017,44.35278592,-68.377698584,ME
11NPSWRD_WQX-NETN_ACAD_40,Long Pond (MDI),Lake,36,10.696075285714281,0.289204645,7.7106536341865075,2006,2017,44.327519,-68.363333,ME
11NPSWRD_WQX-NETN_ACAD_41,Echo Lake,Lake,36,20.65691757142856,0.7244136600000001,13.583257995714286,2006,2017,44.32702,-68.337714,ME
11NPSWRD_WQX-NETN_ACAD_43,Hodgdon Pond,Lake,4,11.030520714285721,7.267250000000001,8.74967277857143,2013,2016,44.32222285,-68.397804258,ME
11NPSWRD_WQX-NETN_ACAD_44,Seal Cove Pond,Lake,36,12.074270000000002,0.318323275,8.088344799107142,2006,2017,44.30146768,-68.397188661,ME
11NPSWRD_WQX-NETN_ACAD_50,Sargent Mtn Pond,Lake,24,7.2620844285714385,2.9069000000000003,4.225867681845238,2006,2017,44.33449098,-68.269588624,ME
11NPSWRD_WQX-NETN_ACAD_51,Bear Brook Pond,Lake,4,11.281678900000001,4.3249,7.80507334464286,2012,2015,44.36113982,-68.195256159,ME
11NPSWRD_WQX-NETN_ACAD_52,Lower Breakneck,Lake,4,8.435023642857159,3.5095500000000004,6.16778091071429,2012,2015,44.39076016,-68.257863404,ME
11NPSWRD_WQX-NETN_ACAD_53,Upper Breakneck,Lake,4,11.66305,0.35012547,7.4423428675,2014,2017,44.38655138,-68.255453525,ME
11NPSWRD_WQX-NETN_ACAD_54,Cadillac Stream,Stream,12,6.215119321428562,2.168481564285716,3.7856383982142834,2012,2017,44.344799,-68.217003,ME
11NPSWRD_WQX-NETN_ACAD_55,Hadlock Brook (Upper Hadlock Pond),Stream,12,7.298653635714281,3.4386500000000004,4.745421826785717,2012,2017,44.331585,-68.280098,ME
11NPSWRD_WQX-NETN_ACAD_56,Breakneck Brook,Stream,6,7.496783685714281,4.5376,5.738019716666667,2012,2016,44.410782,-68.251801,ME
11NPSWRD_WQX-NETN_ACAD_58,Marshall Brook,Stream,6,22.51075,16.8033,19.583687390476193,2012,2016,44.274902,-68.351418,ME
11NPSWRD_WQX-NETN_ACAD_59,Heath Brook,Stream,6,7.302451850000001,5.1048,6.153095326190474,2012,2016,44.277615,-68.367973,ME
11NPSWRD_WQX-NETN_ACAD_60,Hunters Brook,Stream,6,7.860860250000001,5.672000000000001,6.405273965476193,2012,2016,44.310059,-68.222183,ME
11NPSWRD_WQX-NETN_ACAD_61,Stanley Brook,Stream,12,23.373710891304356,10.2096,15.29115294689441,2012,2017,44.299347,-68.241569,ME
11NPSWRD_WQX-NETN_ACAD_62,Otter Creek,Stream,12,6.66329341428572,4.005850000000001,5.108389734523808,2012,2017,44.332718,-68.206772,ME
11NPSWRD_WQX-NETN_ACAD_63,Kebo Brook,Stream,6,5.16606266428572,2.6587500000000004,3.6739662559523802,2012,2016,44.373081,-68.222206,ME
11NPSWRD_WQX-NETN_ACAD_64,Sargent Brook,Stream,6,6.92654511428572,3.7222500000000003,4.766165563095241,2012,2016,44.350292,-68.290138,ME
11NPSWRD_WQX-NETN_ACAD_65,Browns Brook,Stream,6,55.11766,24.992250000000002,36.16777871909939,2013,2017,44.339237,-68.301231,ME
11NPSWRD_WQX-NETN_ACAD_66,Eagle Lake inlet/ Bubble pond outlet,Stream,2,5.742900000000001,4.0767500000000005,4.9098250000000005,2013,2013,44.350194,-68.241083,ME
11NPSWRD_WQX-NETN_ACAD_67,Duck Pond Brook-inlet to Long Pond,Stream,6,5.459300000000001,4.152739607142842,4.551458417857141,2013,2017,44.331234,-68.378265,ME
MEDEP_WQX-56199,SW-SE,Stream,1,67,67,67,2006,2006,43.91572,-69.946701,ME
MEDEP_WQX-56200,SW-SW,Stream,1,82,82,82,2006,2006,43.91572,-69.946701,ME
MEDEP_WQX-67779,675 US,Stream,3,156,143,151.66666666666666,2003,2004,43.629464,-70.245879,ME
MEDEP_WQX-67790,302 US,Stream,2,147,137,142,2003,2004,43.633532,-70.249843,ME
MEDEP_WQX-67949,387 US,Stream,2,107,102,104.5,2003,2004,43.626483,-70.278076,ME
MEDEP_WQX-67954,256 US,Stream,2,21,20,20.5,2003,2004,43.684974,-70.302966,ME
MEDEP_WQX-68112,257 US,Stream,2,157,128,142.5,2003,2004,43.670353,-70.308445,ME
MEDEP_WQX-68113,312 US,Stream,2,58,44,51,2003,2004,44.823731,-68.807694,ME
MEDEP_WQX-68392,682 US,Stream,1,59,59,59,2004,2004,44.825257,-68.806552,ME
MEDEP_WQX-76534,ABM05,Stream,6,62,11,39.666666666666664,2005,2005,44.1232,-70.2217,ME
MEDEP_WQX-76536,ADL12,Stream,6,246,88,139.5,2005,2005,44.07,-70.1955,ME
MEDEP_WQX-76537,AJN02,Stream,5,59,26,38.2,2005,2005,44.1119,-70.2121,ME
MEDEP_WQX-76538,AJN06,Stream,1,51,51,51,2005,2005,44.114206,-70.203492,ME
MEDEP_WQX-76539,ALO04,Stream,5,68,29,50.2,2005,2005,44.1095,-70.2314,ME
MEDEP_WQX-76559,KBNRW18,Stream,1,91,91,91,2008,2008,44.3261,-69.827033,ME
MEDEP_WQX-76565,KBNTB01,Stream,1,330,330,330,2008,2008,44.330827,-69.791849,ME
MEDEP_WQX-76567,KBNUA02,Stream,4,80,11,47,2005,2005,44.3326,-69.8038,ME
MEDEP_WQX-76568,KBNUA14,Stream,5,280,14,132.6,2005,2008,44.3216,-69.8135,ME
MEDEP_WQX-76571,KCBJGMK03,Stream,3,11,10,10.333333333333334,2005,2005,44.3055,-69.971617,ME
MEDEP_WQX-76572,KCBJGMK06,Stream,1,10,10,10,2005,2005,44.309369,-69.971476,ME
MEDEP_WQX-76596,KMSPLBN05,Stream,1,3,3,3,2005,2005,45.54641,-70.11432,ME
MEDEP_WQX-76598,KMSSN51,Stream,1,4,4,4,2005,2005,45.67708,-70.3119,ME
MEDEP_WQX-76603,KSBEBMN06,Stream,1,5,5,5,2006,2006,44.903969,-69.292857,ME
MEDEP_WQX-76604,KSBEBMN12,Stream,1,4,4,4,2006,2006,44.903542,-69.318024,ME
MEDEP_WQX-76608,KSRCB03,Stream,1,4,4,4,2005,2005,44.17963,-69.62071,ME
MEDEP_WQX-76609,KSRCH01,Stream,3,4,3,3.3333333333333335,2005,2005,44.17026,-69.62601,ME
MEDEP_WQX-76613,KSRFN03,Stream,3,10,5,7.666666666666667,2005,2005,44.22577,-69.59567,ME
MEDEP_WQX-76615,KSRTR34,Stream,2,3,3,3,2005,2005,44.08637,-69.64207,ME
MEDEP_WQX-76622,KSRWBCT12,Stream,4,7,5,5.5,2005,2005,44.31762,-69.5423,ME
MEDEP_WQX-76623,KSRWBDE10,Stream,3,12,9,10,2005,2005,44.32238,-69.58192,ME
MEDEP_WQX-76624,KSRWBHW01,Stream,3,16,8,10.666666666666666,2005,2005,44.34184,-69.56322,ME
MEDEP_WQX-76625,KSRWBMD02,Stream,3,5,3,3.6666666666666665,2005,2005,44.36658,-69.54126,ME
MEDEP_WQX-76627,KSRWV02,Stream,2,3,3,3,2005,2005,44.14991,-69.62025,ME
MEDEP_WQX-76630,KWSCD17,Stream,1,44,44,44,2006,2006,44.794629,-69.718968,ME
MEDEP_WQX-76631,KWT01,Stream,1,45,45,45,2006,2006,44.766681,-69.723567,ME
MEDEP_WQX-76639,NPLCN23,Stream,1,3,3,3,2005,2005,44.863333,-68.021389,ME
MEDEP_WQX-76718,RFRTBKM05,Stream,4,45,20,31.75,2005,2005,43.6307,-70.2518,ME
MEDEP_WQX-76721,RFRNB05,Stream,4,99,47,72.25,2005,2005,43.670894,-70.31933,ME
MEDEP_WQX-79989,915,Stream,1,0.23751500000000003,0.23751500000000003,0.23751500000000003,2009,2009,45.99351,-68.91299,ME
MEDEP_WQX-79991,914,Stream,1,0.31550500000000004,0.31550500000000004,0.31550500000000004,2009,2009,45.98961,-68.91062,ME
MEDEP_WQX-79993,913,Stream,1,0.17725000000000002,0.17725000000000002,0.17725000000000002,2009,2009,45.95818,-68.95025,ME
MEDEP_WQX-79995,912,Stream,1,0.24460500000000002,0.24460500000000002,0.24460500000000002,2009,2009,45.95906,-68.87373,ME
MEDEP_WQX-79997,911,Stream,1,0.24460500000000002,0.24460500000000002,0.24460500000000002,2009,2009,45.95976,-68.95203,ME
MEDEP_WQX-79999,910,Stream,1,0.26233,0.26233,0.26233,2009,2009,45.98581,-68.88668,ME
NARS_WQX-NEWS04-0101,AEGAN BROOK,Stream,1,0.343865,0.343865,0.343865,2004,2004,47.11112,-69.014956,ME
NARS_WQX-NEWS04-0108,PETITE BROOK,Stream,1,0.7054549999999999,0.7054549999999999,0.7054549999999999,2004,2004,47.16987,-68.90787,ME
NARS_WQX-NEWS04-0203,HALFWAY BROOK,Stream,1,1.69451,1.69451,1.69451,2004,2004,46.9965,-68.02482,ME
NARS_WQX-NEWS04-0305,DEPOT STREAM,Stream,1,1.1379450000000002,1.1379450000000002,1.1379450000000002,2004,2004,46.8218,-69.717,ME
NARS_WQX-NEWS04-0401,SNARE BROOK,Stream,1,0.5955600000000001,0.5955600000000001,0.5955600000000001,2004,2004,46.435407,-69.438582,ME
NARS_WQX-NEWS04-0502,R. DE CHUTE,Stream,1,4.789295,4.789295,4.789295,2004,2004,46.63766,-67.79674,ME
NARS_WQX-NEWS04-0602,CHURCH HILL CREEK,Stream,1,0.26587500000000003,0.26587500000000003,0.26587500000000003,2004,2004,45.690392,-70.099792,ME
NARS_WQX-NEWS04-0703,LOGAN BROOK,Stream,1,0.33677500000000005,0.33677500000000005,0.33677500000000005,2004,2004,45.945036,-69.848482,ME
NARS_WQX-NEWS04-0806,GREENLEAF BROOK,Stream,1,1.8682150000000002,1.8682150000000002,1.8682150000000002,2004,2004,45.8845,-67.8623,ME
NARS_WQX-NEWS04-1105,HORSESHOE STREAM,Stream,1,2.80764,2.80764,2.80764,2004,2004,45.37608,-70.75558,ME
NARS_WQX-NEWS04-1202,CARRYING PLACE STREAM,Stream,1,0.528205,0.528205,0.528205,2004,2004,45.1809,-70.01658,ME
NARS_WQX-NEWS04-1302,SCHOODIC BROOK,Stream,1,0.82953,0.82953,0.82953,2004,2004,45.29801,-68.8517,ME
NARS_WQX-NEWS04-1303,KENDUSKEAG RIVER,Stream,1,10.032350000000001,10.032350000000001,10.032350000000001,2004,2004,44.96026,-68.99748,ME
NARS_WQX-NEWS04-1410,SPRUCE BROOK,Stream,1,1.995835,1.995835,1.995835,2004,2004,45.45344,-68.09774,ME
NARS_WQX-NEWS04-1901,HARDY STREAM,Stream,1,0.40413000000000004,0.40413000000000004,0.40413000000000004,2004,2004,44.89172,-70.38491,ME
NARS_WQX-NEWS04-1903,BEAR RIVER,Stream,1,1.6696950000000002,1.6696950000000002,1.6696950000000002,2004,2004,44.5631,-70.8574,ME
NARS_WQX-NEWS04-2002,HIGGINS BROOK,Stream,1,3.2507650000000003,3.2507650000000003,3.2507650000000003,2004,2004,44.98335,-69.55696,ME
NARS_WQX-NEWS04-2101,JELLISON MEADOW BROOK,Stream,1,3.6194450000000002,3.6194450000000002,3.6194450000000002,2004,2004,44.77489,-68.39244,ME
NARS_WQX-NEWS04-3102,KENNEBUNK RIVER,Stream,1,10.390395000000002,10.390395000000002,10.390395000000002,2004,2004,43.43982,-70.5568,ME
USGS-01022810,"Stony Brook below Hamilton Pond nr Bar Harbor, ME",Stream,6,15.4,9.8,11.566666666666666,2000,2000,44.424523,-68.2909882,ME
USGS-01022845,"Hunters Brook near Seal Harbor, Maine",Stream,5,12.2,8.1,9.24,2000,2000,44.3096636,-68.221819,ME
USGS-01022875,"Kitteredge Brook near Bar Harbor, ME",Stream,2,23.5,11.3,17.4,2000,2000,44.3793845,-68.3307114,ME
USGS-01022890,"Marshall Brook near Southwest Harbor, Maine",Stream,1,16.1,16.1,16.1,2000,2000,44.2748024,-68.3509896,ME
USGS-01022895,"Heath Brook near Tremont, Maine",Stream,3,9.5,8.7,9.2,2000,2000,44.2778578,-68.3676567,ME
USGS-01054200,"Wild River at Gilead, Maine",Stream,202,1.3,0.2,0.4339108910891089,2003,2018,44.3905556,-70.9797222,ME
