MonitoringLocationIdentifier,MonitoringLocationName,MonitoringLocationTypeName,n,MaxCl,MinCl,MeanCl,minYear,maxYear,Lat,Long,state
21NYDECA_WQX-14010053,DELAWARE RIVER IN CALLICOON,Stream,10,11,5.8,8.92,2010,2010,41.7647222,-75.0611111,PA
21OHIO_WQX-301182,301182-MAHONING R. DST. EDINBURG WWTP @ U.S. RT. 224/PA-551 (PA),Stream,7,102,57.9,75.78571428571429,2013,2013,41.018485,-80.440505,PA
21OHIO_WQX-301183,301183-MAHONING R. UPST. NEW CASTLE WWTP @ PA-108 (PA),Stream,7,99.9,58.8,75.28571428571429,2013,2013,40.970782,-80.384155,PA
21OHIO_WQX-301184,301184-MAHONING R. DST. NEW CASTLE WWTP @ PA-18 (PA),Stream,7,104,59.3,77.65714285714286,2013,2013,40.963595,-80.382324,PA
21OHIO_WQX-A01P03,A01P03-TURKEY CREEK E OF CONNEAUT @ STATE LINE RD.,Stream,5,132,68.8,103.52,2015,2015,41.9617,-80.5194,PA
21OHIO_WQX-N03S51,N03S51-MAHONING R. @ OHIO/PA STATE LINE,Stream,9,103,55.3,72.61111111111111,2013,2015,41.03,-80.5192,PA
21PA_WQX-DRBC422088,Darby Creek,Stream,5,52.6,33,40.86,2007,2009,39.8661,-75.3133,PA
21PA_WQX-DRBC422091,Frankford Creek,Stream,6,118,72,99.16666666666667,2007,2009,39.9986,-75.0861,PA
21PA_WQX-DRBC422094,Chester Creek,Stream,6,261.8,49.7,105.51666666666667,2007,2009,39.8447,-75.36,PA
21PA_WQX-DRBC422097,Pennypack Creek,Stream,6,147.7,77.5,98.2,2007,2009,40.0333,-75.0181,PA
21PA_WQX-DRBC422100,Poquessing Creek,Stream,6,163.6,72.3,109.23333333333333,2007,2009,40.0536,-74.9819,PA
21PA_WQX-DRBC422103,Neshaminy Creek,Stream,6,131.7,37.5,74.78333333333333,2007,2009,40.0936,-74.9133,PA
21PA_WQX-DRBC422110,Schuylkill River,Stream,6,56.5,36.9,47.983333333333334,2007,2009,40.0083,-75.1972,PA
21PA_WQX-DRBC422111,Schuylkill River,Stream,6,52,36.6,44.516666666666666,2007,2009,39.9528,-75.1808,PA
21PA_WQX-DRBC422115,Crum Creek,Stream,6,114.5,47.3,79.11666666666666,2007,2009,39.8631,-75.3242,PA
21PA_WQX-DRBC422120,Ridley Creek,Stream,6,66.7,40.5,54.06666666666667,2007,2009,39.8533,-75.3461,PA
21PA_WQX-WQN0001,GENESEE RIVER,Stream,54,26.36,4.52,8.092407407407407,2009,2018,41.9942,-77.87,PA
21PA_WQX-WQN0100,UNT Sixpenny,Stream,32,15.23,8.33,11.7271875,2015,2018,40.2406,-75.7772,PA
21PA_WQX-WQN0101,DELAWARE RIVER,Stream,79,49.3,10.5,25.173544303797467,2009,2018,40.2192,-74.7783,PA
21PA_WQX-WQN0103,DELAWARE RIVER,Stream,52,38.07,6.45,13.77948076923077,2009,2018,41.3711,-74.6978,PA
21PA_WQX-WQN0104,W BR DELAWARE RIVER,Stream,44,33.58,6.85,13.625681818181818,2010,2018,41.9522,-75.2919,PA
21PA_WQX-WQN0105,BRANDYWINE CREEK,Stream,123,178,11.76,46.40130081300813,1998,2018,39.8694,-75.5931,PA
21PA_WQX-WQN0110,SCHUYLKILL RIVER,Stream,67,233,12.9,64.77029850746268,2010,2018,40.0083,-75.1972,PA
21PA_WQX-WQN0111,SCHUYLKILL RIVER,Stream,70,96.34,16.16,35.25371428571429,2010,2018,40.2419,-75.6511,PA
21PA_WQX-WQN0113,SCHUYLKILL RIVER,Stream,50,51.1,8.91,22.089,2001,2018,40.5219,-75.9978,PA
21PA_WQX-WQN0115,WISSAHICKON CREEK,Stream,53,514,46.71,169.11377358490566,2009,2018,40.0147,-75.2067,PA
21PA_WQX-WQN0116,PERKIOMEN CREEK,Stream,54,169,16.97,54.82555555555555,2009,2018,40.1531,-75.4556,PA
21PA_WQX-WQN0117,TULPEHOCKEN CREEK,Stream,51,42.26,3.5,28.04921568627451,1998,2018,40.3628,-75.9678,PA
21PA_WQX-WQN0121,NESHAMINY CREEK,Stream,51,278,25.57,101.47941176470589,2010,2018,40.1742,-74.9572,PA
21PA_WQX-WQN0123,LEHIGH RIVER,Stream,53,85,13.04,32.17754716981132,2009,2018,40.6667,-75.2383,PA
21PA_WQX-WQN0125,LEHIGH RIVER,Stream,50,40.81,6.98,18.842200000000002,2009,2018,40.7531,-75.6025,PA
21PA_WQX-WQN0126,LEHIGH RIVER,Stream,53,30.5,6.55,15.161509433962264,2009,2018,41.1303,-75.6258,PA
21PA_WQX-WQN0130,JORDAN CREEK,Stream,49,539,18.25,48.91734693877551,2010,2018,40.6019,-75.4622,PA
21PA_WQX-WQN0137,BRODHEAD CREEK,Stream,48,62.8,16.17,33.821875,2010,2018,40.9933,-75.1375,PA
21PA_WQX-WQN0138,BRODHEAD CREEK,Stream,49,38.58,11.12,23.968979591836735,2010,2018,41.035,-75.2108,PA
21PA_WQX-WQN0139,BUSHKILL CREEK,Stream,51,8.35,3.04,5.175098039215686,2009,2018,41.0883,-75.0375,PA
21PA_WQX-WQN0141,WALLENPAUPACK CREEK,Stream,51,24.01,4.23,9.902549019607843,2009,2018,41.3361,-75.34,PA
21PA_WQX-WQN0142,TOBYHANNA CREEK,Stream,52,43.56,10.18,22.752692307692307,2009,2018,41.0844,-75.6053,PA
21PA_WQX-WQN0147,LACKAWAXEN RIVER,Stream,55,32.84,4.87,13.227636363636364,2009,2018,41.4867,-74.9914,PA
21PA_WQX-WQN0149,WHITE CLAY CREEK,Stream,117,82.5,7.3,39.24094017094017,1998,2018,39.7444,-75.7731,PA
21PA_WQX-WQN0150,RED CLAY CREEK,Stream,123,165,3.86,56.649268292682926,1998,2018,39.8161,-75.6914,PA
21PA_WQX-WQN0154,VALLEY CREEK,Stream,80,900,0.67,125.5935,1998,2018,40.0811,-75.4564,PA
21PA_WQX-WQN0156,FRENCH CREEK,Stream,65,18.9,1.32,11.686769230769231,2000,2005,40.1714,-75.6906,PA
21PA_WQX-WQN0178,PINE CREEK,Stream,97,24.58,8.37,13.701237113402062,2010,2018,40.4094,-75.735,PA
21PA_WQX-WQN0181,Little Bushkill,Stream,93,47.45,3.24,7.178387096774194,2010,2018,41.0975,-75.0039,PA
21PA_WQX-WQN0182,DELAWARE RIVER,Stream,65,838,17.36,97.49676923076923,2008,2018,39.8069,-75.4064,PA
21PA_WQX-WQN0183,East Branch Dyberry Creek,Stream,90,8.82,1.83,3.7064444444444447,2010,2018,41.6614,-75.2881,PA
21PA_WQX-WQN0185,DELAWARE RIVER,Stream,43,26.32,5.42,11.200232558139534,2010,2018,41.7644,-75.0619,PA
21PA_WQX-WQN0186,TINICUM CREEK,Stream,78,32.9,3.43,13.066025641025641,1998,2005,40.4742,-75.1358,PA
21PA_WQX-WQN0187,COOKS CREEK,Stream,81,25.8,5.92,10.93846913580247,1998,2005,40.5814,-75.2053,PA
21PA_WQX-WQN0188,BALDWIN RUN,Stream,14,64,11.1,42.753571428571426,1998,1999,39.8561,-75.4058,PA
21PA_WQX-WQN0189,JOHNSON CREEK,Stream,20,7,3.31,5.1855,1998,2000,41.73,-75.3831,PA
21PA_WQX-WQN0190,CHOKE CREEK,Stream,67,6.35,1.14,2.5271641791044774,1998,2005,41.1617,-75.6028,PA
21PA_WQX-WQN0191,WILD CREEK,Stream,107,35.78,6.83,16.720747663551403,1998,2018,40.9419,-75.5828,PA
21PA_WQX-WQN0192,ADAMS CREEK,Stream,49,17.7,7.87,12.242448979591837,2000,2005,41.2394,-74.8672,PA
21PA_WQX-WQN0193,WISSAHICKON CREEK,Stream,53,703,44.08,163.29358490566037,2009,2018,40.1239,-75.2203,PA
21PA_WQX-WQN0194,DELAWARE RIVER,Stream,52,46.34,8.15,18.02846153846154,2009,2018,40.8289,-75.0847,PA
21PA_WQX-WQN0195,Rock Run,Stream,71,16,5.66,9.657605633802817,2005,2010,40.1736,-75.6958,PA
21PA_WQX-WQN0196,WEST BR PERKIOMEN CRK,Stream,69,19.2,8.26,11.427826086956522,2005,2010,40.405,-75.6136,PA
21PA_WQX-WQN0197,BLOOMING GROVE CRK,Stream,67,23.6,6.36,11.41910447761194,2005,2010,41.4361,-75.105,PA
21PA_WQX-WQN0198,TUNKHANNOCK CREEK,Stream,67,18.3,1.59,8.778805970149254,2005,2010,40.1919,-75.3767,PA
21PA_WQX-WQN0199,KINTZ CREEK,Stream,63,7.66,2.11,4.263174603174603,2005,2010,41.2806,-75.2422,PA
21PA_WQX-WQN0201,SUSQUEHANNA RIVER,Stream,205,47.457,0.156,19.82430780487805,1998,2018,40.0286,-76.5167,PA
21PA_WQX-WQN0202,Susquehanna River at Harrisburg,Stream,117,35.979,0.16,18.426881196581196,2012,2018,40.2564,-76.8844,PA
21PA_WQX-WQN0203,SUSQUEHANNA RIVER,Stream,134,41.977,0.322,20.10685970149254,2010,2018,40.8514,-76.8069,PA
21PA_WQX-WQN0204,PEQUEA CREEK,Stream,175,85.6,0.077,24.82251257142857,2008,2018,39.9056,-76.3281,PA
21PA_WQX-WQN0206,CHICKIES CREEK,Stream,52,71.4,19.57,40.16211538461538,2009,2018,40.0628,-76.5153,PA
21PA_WQX-WQN0207,CODORUS CREEK,Stream,2,46.9,32.33,39.614999999999995,2012,2012,40.0103,-76.7103,PA
21PA_WQX-WQN0210,W CONEWAGO CREEK,Stream,179,91.9,0.094,23.55376033519553,2008,2018,40.0814,-76.7181,PA
21PA_WQX-WQN0212,YELLOW BREECHES CREEK,Stream,169,100,0.1035,24.613562130177513,2009,2018,40.2242,-76.8606,PA
21PA_WQX-WQN0214,JUNIATA RIVER,Stream,195,41.852,0.116,17.13655846153846,2008,2018,40.4789,-77.1283,PA
21PA_WQX-WQN0217,LITTLE JUNIATA RIVER,Stream,161,124,0.08,25.72005403726708,2009,2018,40.6089,-78.1361,PA
21PA_WQX-WQN0223,RAYSTOWN BRANCH JUNIATA RIVER,Stream,174,94.9,0.083,20.943988505747125,2008,2018,40.215,-78.2647,PA
21PA_WQX-WQN0224,FRANKSTOWN BRANCH JUNIATA RIVER,Stream,160,194,0.062,37.60659625,2009,2018,40.4717,-78.1867,PA
21PA_WQX-WQN0226,MAHANTANGO CREEK,Stream,118,22.683,5.72,11.632325423728814,2012,2018,40.6108,-76.9114,PA
21PA_WQX-WQN0228,MIDDLE CREEK,Stream,53,27.87,4.6,9.841698113207547,2009,2018,40.775,-76.8697,PA
21PA_WQX-WQN0229,PENNS CREEK,Stream,160,17.075,0.114,6.992739375,2008,2018,40.8672,-77.0489,PA
21PA_WQX-WQN0243,SHERMAN CREEK,Stream,170,20.165,0.112,7.168215882352941,2008,2018,40.3442,-77.1942,PA
21PA_WQX-WQN0249,AUGHWICK CREEK,Stream,122,38.08,4.13,13.84844262295082,1998,2018,40.3344,-77.86,PA
21PA_WQX-WQN0252,BEAVERDAM BR JUNIATA RIVER,Stream,57,307,17.11,61.889649122807015,2009,2018,40.4306,-78.3642,PA
21PA_WQX-WQN0256,BIG ELK CREEK,Stream,48,114,8.68,34.510416666666664,2010,2018,39.73,-75.8478,PA
21PA_WQX-WQN0259,Muddy Creek,Stream,139,26.0199,0.053,15.442240287769785,2010,2018,39.7728,-76.3161,PA
21PA_WQX-WQN0265,RAMBO RUN,Stream,61,15.2,8.98,10.70704918032787,1998,2003,39.8219,-76.5331,PA
21PA_WQX-WQN0266,LITTLE CONESTOGA CREEK,Stream,36,175,9.17,34.45,1998,2001,39.9711,-76.3756,PA
21PA_WQX-WQN0267,CONEWAGO CREEK,Stream,80,10.5,2.7,4.617375,1998,2005,39.9367,-77.3658,PA
21PA_WQX-WQN0268,PENNS CREEK,Stream,65,16.5,5.66,9.81553846153846,1998,2003,40.8656,-77.6094,PA
21PA_WQX-WQN0269,CONEWAGO CREEK,Stream,155,198,0.12,33.51566774193548,2011,2018,40.1508,-76.6897,PA
21PA_WQX-WQN0270,LETORT SPRING RUN,Stream,122,16.1,3.7,12.175245901639345,2000,2010,40.1758,-77.1858,PA
21PA_WQX-WQN0271,CONODOGUINET CREEK,Stream,172,69.9,0.086,29.204812209302325,2008,2018,40.255,-77.0189,PA
21PA_WQX-WQN0272,SWATARA CREEK,Stream,190,51.5,0.107,23.88701842105263,2008,2018,40.2869,-76.6778,PA
21PA_WQX-WQN0273,CONESTOGA RIVER,Stream,190,176,0.06,49.19608842105263,2008,2018,39.9389,-76.3869,PA
21PA_WQX-WQN0274,SINKING RUN,Stream,66,9.36,1.73,4.455,2005,2010,40.6083,-78.1961,PA
21PA_WQX-WQN0275,CONODOGUINET CREEK,Stream,67,6.93,1.13,1.7823880597014925,2005,2010,40.0694,-77.7564,PA
21PA_WQX-WQN0276,EAST LICKING CREEK,Stream,66,1.41,0.65,0.9083333333333333,2005,2010,40.5511,-77.5167,PA
21PA_WQX-WQN0277,ELK CREEK,Stream,66,12.9,4.8,7.503636363636364,2005,2010,40.9244,-77.4756,PA
21PA_WQX-WQN0278,CONEWAGO CREEK,Stream,147,143,0.065,29.224650340136055,2011,2018,40.195,-76.5675,PA
21PA_WQX-WQN0279,BOB'S CREEK,Stream,144,21.52,3.73,7.793263888888889,2006,2018,40.2631,-78.5908,PA
21PA_WQX-WQN0280,BIG SPRING RUN,Stream,145,603,0.131,66.16318068965518,2011,2018,39.9956,-76.2636,PA
21PA_WQX-WQN0281,PAXTON CREEK,Stream,122,299,0.146,93.26659180327869,2012,2018,40.3058,-76.8556,PA
21PA_WQX-WQN0282,KISHACOQUILLAS CREEK,Stream,125,32.747,4.252,12.5983312,2012,2018,40.6544,-77.5833,PA
21PA_WQX-WQN0283,Spring Creek,Stream,13,161,59.9,101.65384615384616,2012,2013,40.2425,-76.8569,PA
21PA_WQX-WQN0284,Pequea Creek,Stream,118,42.91,0.13,25.35944745762712,2012,2018,40.0092,-76.1622,PA
21PA_WQX-WQN0285,Quittapahila Creek,Stream,120,67.4,0.069,40.4304225,2012,2018,40.3422,-76.5608,PA
21PA_WQX-WQN0286,Codorus Creek,Stream,119,274,0.109,57.89962605042017,2012,2018,40.0522,-76.6544,PA
21PA_WQX-WQN0301,SUSQUEHANNA RIVER,Stream,181,51,0.088,25.78645580110497,2008,2018,40.9589,-76.6197,PA
21PA_WQX-WQN0302,SUSQUEHANNA RIVER,Stream,181,90.4,0.078,27.06768950276243,2008,2018,41.2492,-75.885,PA
21PA_WQX-WQN0305,SUSQUEHANNA RIVER,Stream,176,57.4,0.059,26.28769772727273,2008,2018,41.7653,-76.4386,PA
21PA_WQX-WQN0306,SUSQUEHANNA RIVER,Stream,44,35.35,10.17,17.781136363636364,2010,2018,41.9636,-75.7417,PA
21PA_WQX-WQN0308,FISHING CREEK,Stream,49,27.84,4.42,12.625714285714286,2010,2018,40.995,-76.4731,PA
21PA_WQX-WQN0309,NESCOPECK CREEK,Stream,51,74.3,15.02,36.127450980392155,1998,2018,41.0469,-76.2208,PA
21PA_WQX-WQN0310,WAPWALLOPEN CREEK,Stream,26,46.4,21.3,34.93846153846154,1998,2000,41.0711,-76.1339,PA
21PA_WQX-WQN0313,LACKAWANNA RIVER,Stream,50,341,16.21,61.237,1999,2018,41.3583,-75.7439,PA
21PA_WQX-WQN0317,TUNKHANNOCK CREEK,Stream,147,67.8,0.144,22.062308163265307,2008,2018,41.5572,-75.8942,PA
21PA_WQX-WQN0318,TOWANDA CREEK,Stream,55,16.28,1.29,7.653272727272728,2009,2018,41.7081,-76.4861,PA
21PA_WQX-WQN0323,SUSQUEHANNA RIVER,Stream,52,51.6,8.83,26.744038461538462,2009,2018,41.4619,-75.8542,PA
21PA_WQX-WQN0324,TIOGA RIVER,Stream,47,20.93,5.23,11.917872340425532,2009,2018,41.9561,-77.1156,PA
21PA_WQX-WQN0325,WEST BR FISHING CREEK,Stream,67,0.95,0.51,0.707910447761194,2005,2010,41.305,-76.4322,PA
21PA_WQX-WQN0333,SUGAR CREEK,Stream,49,41.96,6.86,21.231428571428573,2009,2018,41.7908,-76.4622,PA
21PA_WQX-WQN0334,WYALUSING CREEK,Stream,49,18.64,4.96,11.035714285714286,2009,2018,41.6972,-76.2306,PA
21PA_WQX-WQN0336,DYBERRY CREEK,Stream,46,8,1.96,3.8454347826086956,2001,2005,41.6531,-75.2819,PA
21PA_WQX-WQN0338,RILEY CREEK,Stream,20,14.7,4.02,10.0515,1998,2000,41.6492,-76.0075,PA
21PA_WQX-WQN0339,LITTLE FISHING CREEK,Stream,81,6.26,0.7,4.0395061728395065,1998,2005,41.1644,-76.5058,PA
21PA_WQX-WQN0340,UNT TUNKHANNOCK CREEK,Stream,50,9.55,3.03,5.593,2000,2005,41.8083,-75.5808,PA
21PA_WQX-WQN0341,Tioga River,Stream,43,26.3,3.4,10.923488372093024,2010,2018,41.7956,-77.0794,PA
21PA_WQX-WQN0342,Wysox Creek,Stream,61,18.51,4.65,10.865901639344262,2010,2015,41.7867,-76.3831,PA
21PA_WQX-WQN0343,Cowanesque River,Stream,18,21.15,6.56,13.5,2015,2018,41.9875,-77.3025,PA
21PA_WQX-WQN0401,W BR SUSQUEHANNA RIVER,Stream,175,26.284,2.73,10.682255428571429,2008,2018,40.9669,-76.8792,PA
21PA_WQX-WQN0402,W BR SUSQUEHANNA RIVER,Stream,47,19.36,4.88,9.33404255319149,2010,2018,41.2289,-77.0189,PA
21PA_WQX-WQN0404,WEST BR SUSQUEHANNA RIVER,Stream,163,27.09,0.131,12.528138036809816,2008,2018,41.1167,-78.1086,PA
21PA_WQX-WQN0406,W BR SUSQUEHANNA RIVER,Stream,48,29.53,6.99,12.462291666666667,2010,2018,40.8969,-78.6775,PA
21PA_WQX-WQN0408,LOYALSOCK CREEK,Stream,50,7.26,1.95,3.9528,1999,2018,41.325,-76.9111,PA
21PA_WQX-WQN0409,LYCOMING CREEK,Stream,185,5.89,1.68,3.2014054054054055,1998,2018,41.4181,-77.0328,PA
21PA_WQX-WQN0410,PINE CREEK,Stream,162,22.166,0.07,4.545124074074074,2008,2018,41.2719,-77.3269,PA
21PA_WQX-WQN0411,Pine Creek,Stream,57,8.92,2.32,4.8431578947368426,2010,2015,41.5208,-77.4478,PA
21PA_WQX-WQN0413,BALD EAGLE CREEK,Stream,48,58.6,15.36,36.062916666666666,2010,2018,40.9747,-77.7419,PA
21PA_WQX-WQN0415,SPRING CREEK,Stream,49,106,24.58,56.066326530612244,2010,2018,40.89,-77.7942,PA
21PA_WQX-WQN0418,SINNEMAHONING CREEK,Stream,48,11.06,2.02,4.7325,2010,2018,41.2611,-77.9069,PA
21PA_WQX-WQN0420,DRIFTWOOD BR SINNEMAHONING CREEK,Stream,46,13.85,1.77,6.136956521739131,2010,2018,41.4133,-78.1969,PA
21PA_WQX-WQN0422,CLEARFIELD CREEK,Stream,48,20.98,6.53,11.829583333333334,2010,2018,40.9858,-78.4058,PA
21PA_WQX-WQN0423,BEECH CREEK,Stream,45,9.48,2.24,4.950888888888889,2010,2018,41.0747,-77.5922,PA
21PA_WQX-WQN0428,LOYALSOCK CRK,Stream,58,8.67,1.76,4.261896551724138,2010,2015,41.4561,-76.69,PA
21PA_WQX-WQN0429,LITTLE PINE CREEK,Stream,53,11.3,2.09,5.724905660377359,2009,2018,41.3094,-77.3628,PA
21PA_WQX-WQN0433,FISHING CREEK,Stream,54,24.79,5.58,12.176666666666666,2005,2018,41.0753,-77.4778,PA
21PA_WQX-WQN0434,KETTLE CREEK,Stream,46,3.72,1.07,2.031304347826087,2010,2018,41.3194,-77.8733,PA
21PA_WQX-WQN0439,BENNETT BR SINNEMAHONING CREEK,Stream,52,10.92,2.2,5.316923076923077,2009,2018,41.3339,-78.1356,PA
21PA_WQX-WQN0443,YOUNG WOMANS CRK,Stream,56,2.18,0.8,1.292142857142857,2010,2015,41.3892,-77.6908,PA
21PA_WQX-WQN0444,MUNCY CREEK,Stream,47,24.58,3.53,7.419361702127659,2010,2018,41.2175,-76.7872,PA
21PA_WQX-WQN0445,BALD EAGLE CREEK,Stream,167,41.657,4.6,20.32300898203593,2008,2018,41.1244,-77.435,PA
21PA_WQX-WQN0446,MUNCY CREEK,Stream,70,7.97,1.68,3.7568571428571427,1998,2005,41.3614,-76.5342,PA
21PA_WQX-WQN0447,SPRUCE RUN,Stream,73,2.8,0.5,0.7198630136986301,1998,2005,41.0239,-77.0653,PA
21PA_WQX-WQN0448,WEST BR SUSQUEHANNA RIVER,Stream,170,21.9,0.085,9.40272705882353,2008,2018,41.2022,-77.2519,PA
21PA_WQX-WQN0449,Beech Creek,Stream,45,10.8,1.86,4.9351111111111114,2010,2018,41.1114,-77.7017,PA
21PA_WQX-WQN0450,FISHING CREEK,Stream,68,22.3,6.17,11.652794117647058,2005,2010,40.9836,-77.5164,PA
21PA_WQX-WQN0451,East Fork Sinnemahoning,Stream,48,4.36,1.03,1.88375,2010,2018,41.5425,-77.9783,PA
21PA_WQX-WQN0452,CEDAR RUN,Stream,67,15.6,8.64,10.676567164179104,2005,2010,41.0792,-77.4828,PA
21PA_WQX-WQN0453,CEDAR RUN,Stream,66,1.51,0.5,0.7716666666666666,2005,2010,41.0636,-77.5117,PA
21PA_WQX-WQN0454,FIRST FORK SINNEMAHONING CRK,Stream,43,10.3,1.22,3.478139534883721,2005,2008,41.4753,-78.0503,PA
21PA_WQX-WQN0455,KILLBUCK RUN,Stream,51,10.5,2.79,4.270980392156862,2006,2010,40.6644,-78.5881,PA
21PA_WQX-WQN0456,West Branch Pine Creek,Stream,58,4.18,1.02,1.8670689655172414,2010,2015,41.7317,-77.65,PA
21PA_WQX-WQN0457,Blockhouse Creek,Stream,57,26.95,4.14,12.039649122807017,2010,2015,41.4736,-77.2306,PA
21PA_WQX-WQN0458,Hoagland Run,Stream,92,3.05,0.67,1.488913043478261,2010,2018,41.3275,-77.1289,PA
21PA_WQX-WQN0459,Kettle Creek,Stream,92,5.04,1.04,2.3921739130434783,2010,2018,41.4756,-77.8258,PA
21PA_WQX-WQN0460,Mosquito Creek,Stream,56,2.89,0.85,1.5094642857142857,2010,2015,41.1286,-78.1342,PA
21PA_WQX-WQN0461,White Deer Creek,Stream,60,24.55,2,5.466833333333334,2010,2015,41.0736,-76.9028,PA
21PA_WQX-WQN0462,Chillisquaque Creek,Stream,115,72.5,0.065,18.12991652173913,2012,2018,40.9744,-76.8,PA
21PA_WQX-WQN0463,Rock Run Lycoming County,Stream,38,2.32,0.86,1.6294473684210526,2014,2018,41.5022,-76.9453,PA
21PA_WQX-WQN0464,Hyner Run,Stream,65,6.285,0.076,2.905292307692308,2014,2018,41.3586,-77.6253,PA
21PA_WQX-WQN0465,Carbaugh Run,Stream,46,2.56,1.483,2.0273478260869564,2014,2018,39.8969,-77.4508,PA
21PA_WQX-WQN0466,PORCUPINE CREEK,Stream,44,15.24,3.86,7.474090909090909,2015,2018,41.4392,-79.5453,PA
21PA_WQX-WQN0467,COREY CREEK,Stream,11,37.49,9.85,20.256363636363638,2015,2018,41.7908,-77.015,PA
21PA_WQX-WQN0508,FALLING SPRING BRANCH,Stream,13,13.7,9.24,12.993076923076924,1998,1999,39.9142,-77.6069,PA
21PA_WQX-WQN0510,TONOLOWAY CREEK,Stream,90,20.089,0.158,11.040422222222222,2010,2014,39.7283,-78.1519,PA
21PA_WQX-WQN0514,Sideling Hill Creek,Stream,95,11.28,2.24,5.185684210526316,2010,2018,39.7325,-78.3461,PA
21PA_WQX-WQN0601,LAKE ERIE,Stream,25,34.94,13.1,19.1764,2008,2016,42.1567,-80.1525,PA
21PA_WQX-WQN0622,LAKE ERIE,Stream,19,35.3,13.96,21.122105263157895,2009,2016,42.1542,-80.0833,PA
21PA_WQX-WQN0624,Lake Erie East,Stream,10,17.56,13.27,16.179,2013,2016,42.2942,-79.8667,PA
21PA_WQX-WQN0626,North Branch Sugar Run,Stream,28,1.15,0.51,0.6664285714285715,2015,2018,41.9008,-78.8828,PA
21PA_WQX-WQN0627,Buck Run,Stream,44,9.52,3.17,5.889772727272727,2015,2018,41.64,-78.6842,PA
21PA_WQX-WQN0628,Kitchen Creek,Stream,39,10.88,3,4.8335897435897435,2015,2018,41.3014,-76.2742,PA
21PA_WQX-WQN0629,Stony Brook,Stream,31,0.99,0.52,0.7154838709677419,2015,2018,41.4675,-76.1611,PA
21PA_WQX-WQN0630,East Branch Hemlock Creek,Stream,34,1.12,0.51,0.7917647058823529,2015,2018,41.9619,-75.4906,PA
21PA_WQX-WQN0632,PRESQUE ISLE BAY,Stream,25,46.8,18.02,28.686799999999998,2003,2016,42.1444,-80.0944,PA
21PA_WQX-WQN0634,Crooked Creek,Stream,35,7.07,1.56,2.943142857142857,2015,2018,41.7917,-75.2739,PA
21PA_WQX-WQN0635,Dixie Run,Stream,37,13.06,3.49,7.766405405405405,2015,2018,41.5583,-77.3314,PA
21PA_WQX-WQN0641,TWELVEMILE CREEK,Stream,70,101,4.01,45.921571428571426,1998,2005,42.2094,-79.915,PA
21PA_WQX-WQN0643,CONNEAUT CREEK,Stream,47,26.06,4.71,13.157659574468084,2009,2018,41.9181,-80.4689,PA
21PA_WQX-WQN0644,Walnut Creek,Stream,48,423,28.16,107.814375,2008,2017,42.0731,-80.2342,PA
21PA_WQX-WQN0701,MONONGAHELA RIVER,Stream,93,141,8.35,29.029247311827955,2009,2018,40.4056,-79.8808,PA
21PA_WQX-WQN0702,MONONGAHELA RIVER,Stream,88,41.15,5.64,14.696704545454546,2010,2018,40.1519,-79.9039,PA
21PA_WQX-WQN0706,YOUGHIOGHENY RIVER,Stream,89,67.8,9.88,26.20314606741573,2009,2018,40.2411,-79.8053,PA
21PA_WQX-WQN0709,YOUGHIOGHENY RIVER,Stream,110,24.9,5.46,12.750818181818182,2009,2018,39.8075,-79.3636,PA
21PA_WQX-WQN0713,South Fork Tenmile Creek,Stream,93,458,3.72,69.7989247311828,2010,2018,39.9228,-80.0725,PA
21PA_WQX-WQN0714,DUNKARD CREEK,Stream,95,209,5.24,50.840210526315786,2009,2018,39.7603,-79.9728,PA
21PA_WQX-WQN0723,Big Sandy Creek,Stream,57,42.34,4.88,15.511228070175438,2010,2015,39.7692,-79.6267,PA
21PA_WQX-WQN0724,Laurel Hill Creek,Stream,58,67.9,9.31,28.814310344827586,2010,2015,39.8228,-79.3206,PA
21PA_WQX-WQN0725,MONONGAHELA RIVER,Stream,100,39.02,4.47,10.9879,2008,2018,39.7261,-79.9103,PA
21PA_WQX-WQN0726,CASSELMAN RIVER,Stream,95,67.3,8.41,27.320631578947367,2009,2018,39.7322,-79.1003,PA
21PA_WQX-WQN0727,CHEAT RIVER,Stream,78,12.43,1.8,4.09448717948718,2001,2015,39.7414,-79.9,PA
21PA_WQX-WQN0728,Whiteley Creek,Stream,95,1036,15.63,290.5953684210526,2010,2018,39.8019,-80.1169,PA
21PA_WQX-WQN0730,KOOSER RUN,Stream,57,80.3,3.97,37.82947368421053,1998,2003,40.06,-79.2281,PA
21PA_WQX-WQN0731,SOUTH FORK TEN MILE CREEK,Stream,61,38.7,4.52,16.035245901639342,1998,2003,39.8825,-80.3175,PA
21PA_WQX-WQN0732,Monongahela River,Stream,98,41.93,5.19,16.110408163265305,2010,2018,40.2753,-79.8883,PA
21PA_WQX-WQN0733,MILL RUN,Stream,152,9.81,1.69,4.690657894736842,2005,2018,39.7631,-79.6633,PA
21PA_WQX-WQN0734,Jones Mill Run,Stream,98,39.54,12.51,22.63357142857143,2010,2018,40.0031,-79.2375,PA
21PA_WQX-WQN0735,House Run (UNT),Stream,52,15.66,0.55,3.379230769230769,2013,2018,39.8539,-80.3297,PA
21PA_WQX-WQN0736,North Fork Dunkard Fork,Stream,17,27.47,2.31,7.5,2015,2018,39.8786,-80.4286,PA
21PA_WQX-WQN0737,Enlow Fork,Stream,17,61.2,9.19,25.404117647058822,2015,2018,39.9692,-80.4475,PA
21PA_WQX-WQN0738,Tenmile Creek,Stream,32,40.93,9.85,23.0075,2015,2018,39.975,-80.0417,PA
21PA_WQX-WQN0739,Monongahela River - Masontown,Stream,32,23.23,3.76,8.688125,2015,2018,39.8531,-79.9267,PA
21PA_WQX-WQN0801,ALLEGHENY RIVER,Stream,73,49,10.13,21.461917808219177,2006,2018,40.5275,-79.8478,PA
21PA_WQX-WQN0803,ALLEGHENY RIVER,Stream,76,30.8,8.67,16.827368421052633,1998,2005,41.1017,-79.6794,PA
21PA_WQX-WQN0805,ALLEGHENY RIVER,Stream,42,27.31,9.18,14.855238095238095,2010,2018,41.57,-79.4056,PA
21PA_WQX-WQN0807,ALLEGHENY RIVER,Stream,44,19.67,2.67,7.1025,2010,2018,41.965,-78.3856,PA
21PA_WQX-WQN0810,CONEMAUGH RIVER,Stream,56,148,12.64,42.31875,2009,2018,40.4539,-79.3908,PA
21PA_WQX-WQN0819,Mahoning Creek,Stream,49,54.6,3.78,16.74061224489796,2010,2018,40.9269,-79.2917,PA
21PA_WQX-WQN0820,REDBANK CREEK,Stream,54,53.8,10.4,24.314814814814813,2009,2018,40.9944,-79.3928,PA
21PA_WQX-WQN0821,Clarion River,Stream,46,34.24,5.54,15.490217391304348,2010,2018,41.17,-79.4725,PA
21PA_WQX-WQN0822,CLARION RIVER,Stream,45,35.95,5.56,15.425777777777778,2008,2018,41.3314,-79.2086,PA
21PA_WQX-WQN0830,TIONESTA CREEK,Stream,49,10.08,2.32,5.0193877551020405,2000,2018,41.6017,-79.0494,PA
21PA_WQX-WQN0831,BROKENSTRAW CREEK,Stream,52,16.75,3.74,9.09423076923077,2009,2018,41.8519,-79.3172,PA
21PA_WQX-WQN0832,CONEWANGO CREEK,Stream,47,45.57,1.05,24.967021276595744,2002,2018,41.9381,-79.1331,PA
21PA_WQX-WQN0843,CLARION RIVER,Stream,49,37.76,6.08,16.25755102040816,2009,2018,41.1297,-79.5542,PA
21PA_WQX-WQN0845,FRENCH CREEK,Stream,51,33.1,9.44,16.552156862745097,2009,2018,41.4019,-79.8317,PA
21PA_WQX-WQN0846,FRENCH CREEK,Stream,49,36.6,8.42,19.430204081632652,2010,2018,41.5892,-80.15,PA
21PA_WQX-WQN0858,TUNUNGWANT CREEK,Stream,48,115,8.23,29.392083333333332,2009,2018,41.9769,-78.6244,PA
21PA_WQX-WQN0860,Allegheny River,Stream,98,17.17,2.86,6.6292857142857144,2010,2018,41.8178,-78.2931,PA
21PA_WQX-WQN0861,MAHONING CREEK,Stream,101,73.6,10.08,24.726534653465347,2009,2018,40.9219,-79.0058,PA
21PA_WQX-WQN0866,ALLEGHENY RIVER,Stream,50,22.07,7.46,12.3516,2010,2018,41.825,-79.1186,PA
21PA_WQX-WQN0867,ALLEGHENY RIVER,Stream,100,33.66,8.28,16.3795,2003,2018,41.2636,-79.8414,PA
21PA_WQX-WQN0868,OIL CREEK,Stream,48,20.6,3.82,11.271458333333333,2010,2018,41.4819,-79.6958,PA
21PA_WQX-WQN0869,FRENCH CREEK,Stream,78,41,6.45,17.24102564102564,1998,2005,41.7717,-80.1075,PA
21PA_WQX-WQN0870,CLEAR SHADE CREEK,Stream,161,6.92,0.52,3.141552795031056,1998,2018,40.1486,-78.8164,PA
21PA_WQX-WQN0871,MINISTER CREEK,Stream,69,2.03,0.76,1.2439130434782608,1999,2005,41.6158,-79.1569,PA
21PA_WQX-WQN0873,WEST BRANCH CALDWELL CREEK,Stream,169,13,1.99,5.18284023668639,1998,2018,41.6967,-79.5722,PA
21PA_WQX-WQN0875,SILVER CREEK,Stream,44,56,6.06,22.436818181818182,1998,2002,41.0439,-79.7764,PA
21PA_WQX-WQN0876,SILVER CREEK,Stream,31,28.7,6.86,15.602903225806452,2002,2004,41.045,-79.7769,PA
21PA_WQX-WQN0877,EAST HICKORY CREEK,Stream,58,2.98,0.66,1.5517241379310345,2005,2010,41.6419,-79.3378,PA
21PA_WQX-WQN0878,MILL CREEK,Stream,124,10.1,1.41,3.651774193548387,2005,2015,40.2517,-79.1553,PA
21PA_WQX-WQN0879,WOODCOCK CREEK,Stream,67,13.8,4.83,9.212537313432836,2005,2010,41.6439,-79.9667,PA
21PA_WQX-WQN0880,QUEMAHONING CREEK,Stream,63,178,27.7,96.51428571428572,2005,2010,40.0689,-79.1089,PA
21PA_WQX-WQN0881,HAVENS RUN,Stream,67,8.56,1.32,3.9619402985074625,2005,2010,41.6119,-78.3697,PA
21PA_WQX-WQN0882,SOUTH FORK PINE CREEK,Stream,108,69.9,4.19,15.855555555555556,2006,2015,40.8475,-79.3619,PA
21PA_WQX-WQN0883,LITTLE YELLOW CREEK,Stream,107,21.46,4.82,9.160280373831776,2006,2015,40.5564,-79.0056,PA
21PA_WQX-WQN0884,Allegheny River,Stream,53,28.8,6.12,16.176603773584905,2009,2018,40.8125,-79.5225,PA
21PA_WQX-WQN0902,OHIO RIVER,Stream,66,66.3,15.01,28.801060606060606,2009,2018,40.5333,-80.1875,PA
21PA_WQX-WQN0903,RACOON CREEK,Stream,56,85.4,24.91,43.980000000000004,2008,2018,40.6281,-80.3369,PA
21PA_WQX-WQN0905,BEAVER RIVER,Stream,98,126,21.43,53.33551020408163,2008,2018,40.7661,-80.3169,PA
21PA_WQX-WQN0906,BEAVER RIVER,Stream,90,156,22.93,53.906555555555556,2010,2018,40.8889,-80.3367,PA
21PA_WQX-WQN0907,CONNOQUENESSING CREEK,Stream,99,214,29.64,87.21535353535353,2009,2018,40.8167,-80.2419,PA
21PA_WQX-WQN0909,SHENANGO RIVER,Stream,61,111,13.88,35.98459016393443,2008,2018,41.0031,-80.3558,PA
21PA_WQX-WQN0910,SHENANGO RIVER,Stream,55,41.24,10.37,18.280727272727272,2009,2018,41.2675,-80.47,PA
21PA_WQX-WQN0911,SHENANGO RIVER,Stream,52,14.35,6.97,10.32576923076923,2009,2018,41.4972,-80.4611,PA
21PA_WQX-WQN0913,LITTLE SHENANGO RIVER,Stream,54,37.6,8.07,16.708333333333332,2009,2018,41.4258,-80.3739,PA
21PA_WQX-WQN0915,MAHONING RIVER,Stream,82,330,24.92,75.23475609756098,2009,2018,41.0183,-80.4403,PA
21PA_WQX-WQN0917,CONNOQUENESSING CREEK,Stream,47,348.64,45.24,132.41574468085108,2009,2018,40.8058,-79.9653,PA
21PA_WQX-WQN0922,SLIPPERY ROCK CREEK,Stream,52,41.19,11.58,23.893846153846155,2010,2018,40.8839,-80.2336,PA
31DELRBC_WQX-332064,Florence Bend (RM 122.4),Stream,123,40,11,23.479674796747968,2005,2017,40.127648,-74.815065,PA
31DELRBC_WQX-332068,Biles Channel (RM 131.04),Stream,133,49,10,23.36842105263158,2005,2017,40.174465,-74.734848,PA
31DELRBC_WQX-892062,Eddystone (RM 84.0),Stream,118,429,15,57.686440677966104,2005,2017,39.849139,-75.329628,PA
31DELRBC_WQX-892070,Betsy Ross Bridge (RM 104.75),Stream,122,56,11,26.92622950819672,2005,2017,39.985324,-75.066565,PA
31DELRBC_WQX-892071,Benjamin Franklin Bridge (RM 100.2),Stream,126,60,13,30.158730158730158,2005,2017,39.953309,-75.136832,PA
31DELRBC_WQX-892077,Torresdale (RM 110.70),Stream,126,48,10,24.984126984126984,2005,2017,40.040161,-74.98813,PA
31DELRBC_WQX-892080,Burlington Bristol Bridge (RM 117.80),Stream,122,45,11,23.918032786885245,2005,2017,40.081534,-74.869559,PA
31ORWUNT_WQX-AR7.4M,"Allegheny River @ Pittsburgh, PA",Stream,57,74,13,25.768421052631577,2009,2016,40.4944444,-79.825,PA
31ORWUNT_WQX-BR-5.3M,BEAVER R @ BEAVER FALLS PA MP5.3,Stream,55,130,34,59.21454545454545,2009,2016,40.7633333,-80.3152778,PA
31ORWUNT_WQX-MR-4.5M,MON. R. @ SOUTH PGH. PA. MP 4.5,Stream,51,64,8,27.28235294117647,2009,2016,40.41,-79.9541667,PA
42SRBCWQ_WQX-1562,DRUR008.5-4177,Stream,4,24.14,3.74,11.1575,2010,2011,41.41394,-77.83613,PA
42SRBCWQ_WQX-1563,DRUR007.8-4177,Stream,4,7.81,5.1,6.1049999999999995,2010,2011,41.40734,-77.83538,PA
42SRBCWQ_WQX-1564,DRUR006.5-4177,Stream,5,5.31,3.54,4.43,2010,2011,41.38971,-77.83515,PA
42SRBCWQ_WQX-1565,DRUR003.7-4177,Stream,4,6.94,3.65,4.76,2010,2011,41.35948,-77.81413,PA
42SRBCWQ_WQX-1566,DRUR003.5-4177,Stream,5,4.57,2.62,3.5180000000000002,2010,2011,41.35948,-77.81431,PA
42SRBCWQ_WQX-1567,DRUR002.3-4177,Stream,5,6.3,2.5,3.608,2010,2011,41.34848,-77.80213,PA
42SRBCWQ_WQX-1568,DRUR001.0-4177,Stream,4,5.8,2.38,3.4699999999999998,2010,2011,41.33629,-77.78462,PA
42SRBCWQ_WQX-1569,SAND000.1-4177,Stream,2,0.66,0.56,0.6100000000000001,2010,2011,41.36005,-77.81345,PA
42SRBCWQ_WQX-1570,STON000.1-4177,Stream,4,0.8,0.56,0.67,2010,2011,41.33852,-77.78555,PA
42SRBCWQ_WQX-1571,SAND001.8-4177,Stream,4,0.58,0.57,0.5725,2010,2011,41.38052,-77.8085,PA
42SRBCWQ_WQX-1573,SAND001.6-4177,Stream,3,0.72,0.51,0.6033333333333333,2010,2011,41.37908,-77.80936,PA
42SRBCWQ_WQX-1574,WOOD000.1-4177,Stream,4,0.61,0.52,0.5675,2010,2011,41.35355,-77.80856,PA
42SRBCWQ_WQX-1575,WHIS000.1-4177,Stream,5,0.88,0.6,0.716,2010,2011,41.3436,-77.79971,PA
42SRBCWQ_WQX-1576,STON002.2-4177,Stream,5,0.7,0.53,0.616,2010,2011,41.36443,-77.78256,PA
42SRBCWQ_WQX-1577,SLAB000.1-4177,Stream,4,0.72,0.51,0.6,2010,2011,41.36442,-77.78345,PA
42SRBCWQ_WQX-1578,KELL000.1-4177,Stream,2,0.65,0.62,0.635,2010,2011,41.35784,-77.78199,PA
42SRBCWQ_WQX-1579,STTR000.1-4177,Stream,4,1.31,0.53,0.8725,2010,2011,41.35026,-77.79074,PA
42SRBCWQ_WQX-1581,BIRC000.1-4177,Stream,4,1.11,0.65,0.8400000000000001,2010,2011,41.1965,-77.9756,PA
42SRBCWQ_WQX-1582,BIRC001.3-4177,Stream,3,0.76,0.66,0.71,2010,2010,41.20328,-77.99425,PA
42SRBCWQ_WQX-1583,BIRC002.2-4178,Stream,3,0.66,0.53,0.6166666666666667,2010,2011,41.21161,-77.00343,PA
42SRBCWQ_WQX-1584,BITR001.7-4178,Stream,3,0.6,0.5,0.54,2010,2011,41.21216,-78.00303,PA
42SRBCWQ_WQX-1585,BIRC005.1-4178,Stream,4,0.7,0.54,0.61,2010,2011,41.23028,-78.04252,PA
42SRBCWQ_WQX-1586,AMOS000.1-4178,Stream,4,0.67,0.56,0.595,2010,2011,41.22457,-78.03047,PA
42SRBCWQ_WQX-1587,LBIR000.1-4177,Stream,3,1.16,0.76,0.9,2010,2010,41.20212,-77.99516,PA
42SRBCWQ_WQX-1588,LBTR000.1-4178,Stream,4,1.5,0.93,1.23,2010,2011,41.1962,-78.01803,PA
42SRBCWQ_WQX-1589,LBIR001.0-4178,Stream,4,0.85,0.66,0.7225,2010,2011,41.19628,-78.00862,PA
42SRBCWQ_WQX-1590,LBIR002.0-4178,Stream,5,0.63,0.56,0.602,2010,2011,41.20118,-78.02824,PA
42SRBCWQ_WQX-1966,WYNK001.5-4176,Stream,8,23.5,11.5,18.1375,2013,2014,41.991667,-76.589167,PA
42SRBCWQ_WQX-ABRA002.9-4175,ABRA 2.9,Stream,2,37,18.2,27.6,2001,2008,41.32583333,-75.85166667,PA
42SRBCWQ_WQX-ALDR004.7-4178,ALDR4.7,Stream,3,28.4,16,21.066666666666666,1983,2015,41.01416667,-78.19888889,PA
42SRBCWQ_WQX-ANDR000.4-4078,ANDR0.4,Stream,4,14.1,8,11.075,1983,2015,40.9725,-78.5275,PA
42SRBCWQ_WQX-ANDR004.2-4078,ANDR 4.2,Stream,1,8.5,8.5,8.5,2015,2015,40.99353,-78.57543,PA
42SRBCWQ_WQX-ANDR012.3-4178,ANDR12.3,Stream,2,19.2,7,13.1,2002,2009,41.07333333,-78.64305556,PA
42SRBCWQ_WQX-ANTE000.1-4177,ANTE0.1,Stream,3,11,7,8.66,1983,2009,41.18861111,-77.24,PA
42SRBCWQ_WQX-ANTE002.8-4177,ANTE 2.8,Stream,1,11,11,11,1983,1983,41.16388889,-77.2225,PA
42SRBCWQ_WQX-APAL006.9-4176,APAL 6.9,Stream,5,11.05,5.6,7.804,2009,2012,41.99472222,-76.13277778,PA
42SRBCWQ_WQX-ARMS000.1-4076,ARMS 0.1,Stream,4,9.11,7,8.0775,1985,2011,40.48361111,-76.93277778,PA
42SRBCWQ_WQX-AUGH000.4-4077,AUGH 0.4,Stream,3,14,8.78,11.57,1985,2010,40.35888889,-77.83888889,PA
42SRBCWQ_WQX-AUGH017.2-4077,AUGH 17.2,Stream,5,23.2,14.7,17.584,1985,2011,40.21861111,-77.92666667,PA
42SRBCWQ_WQX-BABB000.1-4177,BABB0.1,Stream,4,7.2,4.9,5.925,1983,2015,41.55444444,-77.38111111,PA
42SRBCWQ_WQX-BABB007.2-4177,BABB7.2,Stream,3,3,1.34,2.2466666666666666,2002,2015,41.59944444,-77.28222222,PA
42SRBCWQ_WQX-BABC001.2-4176,BABC,Stream,1,4.7,4.7,4.7,2012,2012,41.98277778,-76.26,PA
42SRBCWQ_WQX-BAKR000.1-4177,BAKR0.1,Stream,3,4,1.1,2.066666666666667,1983,2013,41.24694444,-77.60666667,PA
42SRBCWQ_WQX-BALD004.5-4177,BALD4.5,Stream,3,22.7,11,17.633333333333333,1983,2015,41.07055556,-77.47194444,PA
42SRBCWQ_WQX-BALD011.0-4177,BEC 4,Stream,3,30.7,19.3,25.1,2016,2016,41.07944444,-77.55055556,PA
42SRBCWQ_WQX-BALD014.0-4177,BALD14.0,Stream,1,13,13,13,1983,1983,41.05833333,-77.59555556,PA
42SRBCWQ_WQX-BALD024.7-4077,BALD24.7,Stream,2,31.6,16,23.8,1983,2002,40.97472222,-77.74305556,PA
42SRBCWQ_WQX-BALD027.0-4077,BEC 3,Stream,3,44.5,37.1,41.833333333333336,2016,2016,40.947847,-77.781211,PA
42SRBCWQ_WQX-BALD030.0-4077,BALD30.0,Stream,2,16.8,9,12.9,1983,2002,40.93222222,-77.81083333,PA
42SRBCWQ_WQX-BALD034.0-4077,BEC 2,Stream,3,20.7,19.4,20.066666666666666,2016,2016,40.899678,-77.882001,PA
42SRBCWQ_WQX-BALD047.0-4078,BEC 1,Stream,3,16.7,12.4,14.1,2016,2016,40.78942,-78.065937,PA
42SRBCWQ_WQX-BBSC000.1-4178,BBSC 0.1,Stream,4,13.9,4.2,7.1225000000000005,1983,2015,41.33583333,-78.13361111,PA
42SRBCWQ_WQX-BBSC017.6-4178,BENN17.6,Stream,3,18.9,5.3,10.493333333333332,2002,2015,41.31222222,-78.38972222,PA
42SRBCWQ_WQX-BBSC035.2-4178,BENN35.2,Stream,3,67.5,7,29.266666666666666,1983,2009,41.20805556,-78.57305556,PA
42SRBCWQ_WQX-BBSC038.2-4178,BENN38.2,Stream,2,5.1,2.58,3.84,2002,2009,41.17888889,-78.60361111,PA
42SRBCWQ_WQX-BEAR000.1-4078,BEAR0.1,Stream,3,14,6.2,9.4,1983,2015,40.88222222,-78.76277778,PA
42SRBCWQ_WQX-BEAV000.1-4078,BEAV 0.1,Stream,4,27,5,11.685,1983,2004,40.71805556,-78.53222222,PA
42SRBCWQ_WQX-BEAV000.3-4078,BEAV0.3,Stream,6,11.6,5.83,7.821666666666666,2005,2010,40.1581,-78.3782,PA
42SRBCWQ_WQX-BEAV000.6-4076,BEAV 0.6,Stream,4,59.1,24,37.3,1985,2011,40.26611111,-76.73833333,PA
42SRBCWQ_WQX-BECH001.7-4177,BECH0.1,Stream,4,6.9,4.21,5.1525,1983,2015,41.07361111,-77.59166667,PA
42SRBCWQ_WQX-BECH020.3-4177,BECH20.3,Stream,2,10,2.6,6.3,2002,2015,41.10638889,-77.83472222,PA
42SRBCWQ_WQX-BELG002.4-4078,BELG 2.4,Stream,4,3.9,2.84,3.1375,2004,2016,40.6098,-78.3644,PA
42SRBCWQ_WQX-BELG004.5-4078,BELLS GAP,Stream,1,2.9,2.9,2.9,2016,2016,40.63475,-78.38584,PA
42SRBCWQ_WQX-BERM001.2-3976,BERM 1.2,Stream,5,14,10,11.9,1985,2011,39.99916667,-76.94194444,PA
42SRBCWQ_WQX-BERM006.3-4076,BERM 6.3,Stream,1,13,13,13,1985,1985,40.01083333,-76.9925,PA
42SRBCWQ_WQX-BERM011.0-4077,BERM 11.0,Stream,4,14.6,9,12.225,1985,2011,40.00138889,-77.05805556,PA
42SRBCWQ_WQX-BIGF001.0-4078,BIGF 1.0,Stream,3,6.24,4.49,5.63,2004,2010,40.7384,-78.1945,PA
42SRBCWQ_WQX-BILG000.1-4078,BILG0.1,Stream,3,10.9,6,8.07,2002,2015,40.9725,-78.57111111,PA
42SRBCWQ_WQX-BILL001.9-4177,BILL,Stream,2,15.8,10,12.9,1986,2012,41.99944444,-77.25777778,PA
42SRBCWQ_WQX-BIRD002.5-4276,BIRD,Stream,1,11.4,11.4,11.4,2012,2012,42,-76.86555556,PA
42SRBCWQ_WQX-BISC001.2-4177,BISC,Stream,1,5.7,5.7,5.7,2012,2012,41.99777778,-77.46972222,PA
42SRBCWQ_WQX-BLAK000.1-4176,BLK0.1,Stream,4,59,19,39.075,1982,2014,41.0075,-76.16722222,PA
42SRBCWQ_WQX-BLAK015.0-4076,BLK9.3,Stream,4,385,28,135.95,1982,2014,40.97361111,-76.01027778,PA
42SRBCWQ_WQX-BLHC001.0-4176,BLHC 1.0,Stream,1,8.81,8.81,8.81,2009,2009,41.16764,-76.87585,PA
42SRBCWQ_WQX-BLLG000.9-4077,BLLG 0.9,Stream,11,10,3.45,5.411818181818182,1985,2014,40.24611111,-77.90111111,PA
42SRBCWQ_WQX-BLLG004.6-4077,BLLG 4.6,Stream,5,7.88,1.71,3.8,1985,2010,40.24083333,-77.85416667,PA
42SRBCWQ_WQX-BLMO000.1-4178,BLMO0.1,Stream,3,7.74,5,6.113333333333333,1983,2009,41.03611111,-78.05666667,PA
42SRBCWQ_WQX-BLRG002.5-4078,BLRG 2.5,Stream,2,7.37,5.97,6.67,2004,2010,40.4145,-78.4658,PA
42SRBCWQ_WQX-BNTY002.5-4176,BNTY 2.5,Stream,3,10,7.41,8.836666666666666,1997,2012,41.98583333,-76.72277778,PA
42SRBCWQ_WQX-BNTY005.7-4176,BNTY 5.7,Stream,5,10,5.98,7.928,1997,2012,41.94361111,-76.715,PA
42SRBCWQ_WQX-BOBS000.9-4078,BOBS 0.9,Stream,7,11.1,7,8.794285714285714,1985,2016,40.14805556,-78.55138889,PA
42SRBCWQ_WQX-BOBS011.0-4078,BOBS,Stream,4,8.1,4.8,6.85,2013,2014,40.263878,-78.592581,PA
42SRBCWQ_WQX-BOBS011.4-4078,BOBS 11.4,Stream,4,7.65,4.49,6.4350000000000005,2004,2012,40.25972222,-78.58611111,PA
42SRBCWQ_WQX-BOWM002.5-4175,BOWM 2.5,Stream,5,7.1,2,5.828,1982,2014,41.50722222,-75.985,PA
42SRBCWQ_WQX-BOWM013.1-4176,BOWM 13.1,Stream,3,2,1,1.4766666666666666,1982,2008,41.42444444,-76.05805556,PA
42SRBCWQ_WQX-BOWN010.8-4176,BOWN,Stream,1,3.6,3.6,3.6,2014,2014,41.427247,-76.027558,PA
42SRBCWQ_WQX-BRIR000.4-4176,BRIR 0.4,Stream,5,13.2,9,10.4,1982,2014,41.04555556,-76.285,PA
42SRBCWQ_WQX-BRUS000.1-3978,BRUS 0.1,Stream,4,12.1,6.96,10.135,1985,2016,39.9975,-78.29472222,PA
42SRBCWQ_WQX-BRUS014.1-3978,BRUS 14.1,Stream,2,8.32,5.22,6.77,2004,2010,39.9266,-78.2399,PA
42SRBCWQ_WQX-BTLR000.6-4175,BTLR 0.6,Stream,1,10.3,10.3,10.3,2014,2014,41.73499,-75.6698,PA
42SRBCWQ_WQX-BUFF000.4-4077,BUFF 0.4,Stream,9,11.1,7,8.278888888888888,1985,2016,40.49444444,-77.13916667,PA
42SRBCWQ_WQX-BUFF002.0-4076,BUFF0.2,Stream,3,8,5.9,6.8,1983,2015,40.97166667,-76.91722222,PA
42SRBCWQ_WQX-BUFF010.4-4077,BUFF10.4,Stream,3,10,5.8,7.466666666666667,1983,2009,40.95694444,-77.01194444,PA
42SRBCWQ_WQX-BUFF014.6-4077,BUFF 14.6,Stream,3,7.41,6.28,6.66,2004,2010,40.44,-77.3275,PA
42SRBCWQ_WQX-BUFR000.4-4078,BUFR 0.4,Stream,4,7.76,3.57,5.6674999999999995,2004,2011,40.0007,-78.5978,PA
42SRBCWQ_WQX-BUFR002.2-4077,BUFR 2.2,Stream,1,25.2,25.2,25.2,2015,2015,40.90158,-77.81378,PA
42SRBCWQ_WQX-BURG000.5-4078,BURG 0.5,Stream,3,8,5.18,6.21,2004,2016,40.491,-78.451,PA
42SRBCWQ_WQX-BVDB000.1-4078,BEAV 0.1,Stream,1,35.2,35.2,35.2,2004,2004,40.43055556,-78.36583333,PA
42SRBCWQ_WQX-BVDB005.0-4078,BVDB 5.0,Stream,4,67.4,20.9,43.7325,2004,2016,40.4587,-78.4247,PA
42SRBCWQ_WQX-BVDR000.2-4078,BEAV0.2,Stream,1,8.05,8.05,8.05,2009,2009,40.71694444,-78.53194444,PA
42SRBCWQ_WQX-CABB000.1-4078,CABB0.1,Stream,4,37.4,16.5,22.65,2005,2005,40.32997,-78.409104,PA
42SRBCWQ_WQX-CAMP000.5-4177,CAMP,Stream,2,16.2,9,12.6,1986,2012,41.99333333,-77.2975,PA
42SRBCWQ_WQX-CATW000.5-4076,CATW 0.5,Stream,5,15.8,5,11.06,1982,2014,40.9475,-76.46138889,PA
42SRBCWQ_WQX-CATW014.6-4076,CATW 14.6,Stream,4,17,7,11.5,1982,2008,40.93416667,-76.30527778,PA
42SRBCWQ_WQX-CATW033.2-4076,CATW 33.2,Stream,3,16.6,13,14.833333333333334,2001,2014,40.88,-76.10611111,PA
42SRBCWQ_WQX-CAYT001.6-4176,CAY 0.2,Stream,3,27.8,23,24.933333333333334,1984,2013,41.99777778,-76.52166667,PA
42SRBCWQ_WQX-CAYT001.7-4176,CAYT 1.7,Stream,38,121,0.05,37.82815789473684,1986,2012,41.99381,-76.51948,PA
42SRBCWQ_WQX-CCLC000.4-4076,CCLC 0.4,Stream,5,39.6,23.5,33.22,1985,2011,40.11944444,-76.23555556,PA
42SRBCWQ_WQX-CCLC012.2-4076,CCLC 12.2,Stream,4,71,23,55.25,1985,2005,40.16916667,-76.22111111,PA
42SRBCWQ_WQX-CCLC013.5-4076,CCLC 13.5,Stream,1,31.4,31.4,31.4,2011,2011,40.1726,-76.20033,PA
42SRBCWQ_WQX-CEDR000.1-4076,CEDR0.1,Stream,2,66.2,43.1,54.650000000000006,2005,2011,40.2251972,-76.9063303,PA
42SRBCWQ_WQX-CHEM001.1-4176,CHEM 1.1,Stream,1,25,25,25,1982,1982,41.93583333,-76.52111111,PA
42SRBCWQ_WQX-CHEM002.5-4176,CHEM 2.5,Stream,9,365.1,47.5,94.88888888888889,1997,2016,41.95722222,-76.52583333,PA
42SRBCWQ_WQX-CHIQ003.0-4076,CHIQ 3.0,Stream,5,54.9,21,30.48,1985,2011,40.06972222,-76.50027778,PA
42SRBCWQ_WQX-CHIQ020.0-4076,CHIQ 20.0,Stream,2,31.2,27.3,29.25,2005,2011,40.206005,-76.394298,PA
42SRBCWQ_WQX-CHLL000.9-4076,CHLLS0.9,Stream,4,17,13.9,14.975,1983,2015,40.94055556,-76.85472222,PA
42SRBCWQ_WQX-CHLL018.8-4176,CHLL 18.8,Stream,1,20,20,20,1983,1983,41.07916667,-76.67194444,PA
42SRBCWQ_WQX-CHLL019.3-4176,CHLLS19.3,Stream,4,18.2,8,13.225,1983,2009,41.08027778,-76.66944444,PA
42SRBCWQ_WQX-CHOC009.1-4176,CHOC 9.1,Stream,7,13.31,6.9,9.661428571428571,1998,2012,41.98972222,-76.00055556,PA
42SRBCWQ_WQX-CHST001.0-4078,CHST1.0,Stream,4,15,9,12.225,1983,2015,40.86583333,-78.71833333,PA
42SRBCWQ_WQX-CHST013.2-4078,CHST13.2,Stream,2,15.3,15,15.15,2002,2009,40.75138889,-78.66666667,PA
42SRBCWQ_WQX-CHST024.5-4078,CHST24.5,Stream,3,23,10,15.866666666666667,1983,2009,40.63694444,-78.6425,PA
42SRBCWQ_WQX-CHTM000.1-4177,CHTM0.1,Stream,3,18.5,8,14.299999999999999,1983,2009,41.16833333,-77.36472222,PA
42SRBCWQ_WQX-CLFD000.9-4178,CLFD0.9,Stream,5,13.9,6,11.18,1983,2015,41.01777778,-78.4075,PA
42SRBCWQ_WQX-CLFD008.2-4078,CLFD8.2,Stream,5,11.9,6,10.06,1983,2015,40.96972222,-78.40694444,PA
42SRBCWQ_WQX-CLFD022.8-4078,CLFD22.8,Stream,3,14.2,10.9,12.3,2002,2015,40.86111111,-78.44388889,PA
42SRBCWQ_WQX-CLFD042.2-4078,CLFD42.2,Stream,4,14.8,6,12.25,1983,2015,40.74583333,-78.53805556,PA
42SRBCWQ_WQX-CLFD060.5-4078,CLFD60.5,Stream,4,33.3,9,25.1,1983,2015,40.56111111,-78.55194444,PA
42SRBCWQ_WQX-CLOV000.1-4078,CLOV0.1,Stream,8,11.3,8.39,9.8475,1985,2010,40.476495,-78.1759,PA
42SRBCWQ_WQX-CLOV015.7-4078,CLOV15.7,Stream,7,16.1,11.4,12.985714285714286,2005,2006,40.3433,-78.2523,PA
42SRBCWQ_WQX-CLRK003.8-4076,CLRK 3.8,Stream,4,4.2,2,3.2375,1985,2011,40.38833333,-76.94138889,PA
42SRBCWQ_WQX-CNTG000.9-3976,CNTG 0.9,Stream,5,67.5,38.6,50.42,1985,2011,39.93722222,-76.3875,PA
42SRBCWQ_WQX-CNTG022.6-4076,CNTG 22.6,Stream,5,60,31.5,45.48,1985,2011,40.05,-76.2775,PA
42SRBCWQ_WQX-CNTG032.7-4076,CNTG 32.7,Stream,5,35.2,22,29.48,1985,2011,40.12861111,-76.19972222,PA
42SRBCWQ_WQX-CNTG043.9-4076,CNTG 43.9,Stream,5,28.2,22,25.919999999999998,1985,2011,40.14583333,-76.07833333,PA
42SRBCWQ_WQX-COCO000.2-4077,COCO 0.2,Stream,4,6.4,5.92,6.18,1985,2016,40.53722222,-77.14611111,PA
42SRBCWQ_WQX-COCO009.6-4077,COCO 9.6,Stream,3,5.24,5.05,5.1466666666666665,2004,2010,40.61722222,-77.15444444,PA
42SRBCWQ_WQX-CODO000.6-4076,CODO 0.6,Stream,3,188,33,86.63333333333333,1985,2011,40.05194444,-76.64861111,PA
42SRBCWQ_WQX-CODO020.9-3976,CODO 20.9,Stream,1,45.2,45.2,45.2,2011,2011,39.8875,-76.8362,PA
42SRBCWQ_WQX-CODO022.4-3976,CODO 22.4,Stream,3,306,19,119.76666666666667,1985,2005,39.87861111,-76.85361111,PA
42SRBCWQ_WQX-CODO025.5-3976,CODO 25.5,Stream,1,17,17,17,2011,2011,39.862599,-76.890851,PA
42SRBCWQ_WQX-CODO033.0-3976,CODO 33.0,Stream,4,16.8,11,13.3,1985,2011,39.82138889,-76.88388889,PA
42SRBCWQ_WQX-CODO034.1-3976,CODO 34.1,Stream,5,14.9,11,13.14,1985,2011,39.81222222,-76.87472222,PA
42SRBCWQ_WQX-COLD001.1-4078,COLD0.1,Stream,4,5.71,4.1,5.0275,1983,2015,40.90083333,-78.21,PA
42SRBCWQ_WQX-COLD003.6-4078,COLD3.6,Stream,5,4,2.26,2.9499999999999997,1983,2015,40.8675,-78.2075,PA
42SRBCWQ_WQX-CONO001.3-4076,CONO 1.3,Stream,4,34.4,22,28.775,1985,2011,40.25583333,-76.92777778,PA
42SRBCWQ_WQX-CONO028.8-4077,CONO 28.8,Stream,4,28.2,14,20.05,1985,2011,40.24,-77.16472222,PA
42SRBCWQ_WQX-CONO051.8-4077,CONO 51.8,Stream,4,22.7,13,17,1985,2011,40.18416667,-77.40666667,PA
42SRBCWQ_WQX-CONO066.0-4077,CONO 66.0,Stream,5,13.2,8,10.68,1985,2011,40.10444444,-77.56083333,PA
42SRBCWQ_WQX-COOK000.1-4177,COOK0.1,Stream,4,2,0.63,1.3074999999999999,1983,2015,41.27861111,-77.88527778,PA
42SRBCWQ_WQX-CORY001.5-4177,CORY 1.5,Stream,3,17,12.9,15.266666666666667,1997,2012,41.80583333,-77.06083333,PA
42SRBCWQ_WQX-COVE007.7-3978,COVE 7.7,Stream,3,7.92,6.44,7.203333333333333,2004,2010,39.9507,-78.4625,PA
42SRBCWQ_WQX-COVE010.0-3978,COVE,Stream,2,5.3,5.3,5.3,2016,2016,39.92874,-78.47529,PA
42SRBCWQ_WQX-COWN002.2-4177,COWN 2.2,Stream,15,17,5.1,10.765333333333333,1990,2011,41.9883,-77.14744,PA
42SRBCWQ_WQX-COWN012.0-4177,COWN 13.0,Stream,3,44,9.3,22.3,1997,2012,41.98861111,-77.30111111,PA
42SRBCWQ_WQX-COWN020.5-4177,COWN 21.3,Stream,4,64,9.29,36.7475,1997,2012,41.95166667,-77.44138889,PA
42SRBCWQ_WQX-COWN029.6-4177,COWN 30.1,Stream,4,16.2,6.8,11.825,1997,2012,41.91444444,-77.58,PA
42SRBCWQ_WQX-CRKD000.3-4078,CRDK 0.3,Stream,6,11,6.6,9.43,2004,2011,40.4798,-78.0228,PA
42SRBCWQ_WQX-CRKD008.0-4177,CRKD 8.0,Stream,3,24,9.6,15.266666666666666,1997,2012,41.85611111,-77.23472222,PA
42SRBCWQ_WQX-CUSH000.1-4078,CUSH0.1,Stream,3,11,8,9.666666666666666,1983,2009,40.83083333,-78.79083333,PA
42SRBCWQ_WQX-DEEP001.2-4076,DEEP 1.2,Stream,4,9.15,5,7.7625,1985,2011,40.64138889,-76.58805556,PA
42SRBCWQ_WQX-DEER000.2-4178,DEER0.2,Stream,4,3.6,3,3.16,1983,2015,41.08027778,-78.2375,PA
42SRBCWQ_WQX-DELA000.2-4077,DELA 0.2,Stream,2,12.92,8.79,10.855,2004,2010,40.5625,-77.23638889,PA
42SRBCWQ_WQX-DENT000.6-4178,DENT0.6,Stream,3,3.3,1.1,1.8833333333333333,2002,2015,41.35944444,-78.27194444,PA
42SRBCWQ_WQX-DOER000.3-4077,DOER 0.3,Stream,3,15.95,12.4,13.65,2004,2010,40.5464,-77.3491,PA
42SRBCWQ_WQX-DRFT000.1-4178,DRFT0.1,Stream,2,15.2,4.7,9.95,2002,2009,41.33722222,-78.13416667,PA
42SRBCWQ_WQX-DRFT009.9-4178,DRFT9.9,Stream,3,14.5,4.67,8.39,1983,2009,41.41361111,-78.19666667,PA
42SRBCWQ_WQX-DRFT021.2-4178,DRFT21.2,Stream,4,7.5,2.27,4.0225,1983,2009,41.51638889,-78.25388889,PA
42SRBCWQ_WQX-DRFT022.0-4178,Driftwood,Stream,5,6.2,2.4,3.86,2012,2014,41.526489,-78.270075,PA
42SRBCWQ_WQX-DRUF000.7-4177,DRUR0.7,Stream,3,4,2.1,3.2,1983,2015,41.33388889,-77.78083333,PA
42SRBCWQ_WQX-DRYB000.9-4176,DRYB,Stream,1,72.5,72.5,72.5,2012,2012,41.99527778,-76.54833333,PA
42SRBCWQ_WQX-DUNN000.1-4078,DUNN 0.1,Stream,10,16.3,8,11.945,1985,2016,40.02055556,-78.47666667,PA
42SRBCWQ_WQX-DUNN009.9-4078,DUNN 9.9,Stream,4,10,8.03,8.7475,1985,2010,40.11527778,-78.55805556,PA
42SRBCWQ_WQX-EAST000.1-4178,EAST0.1,Stream,2,6,2.01,4.005,2002,2009,41.52972222,-78.02166667,PA
42SRBCWQ_WQX-EBAU001.5-3976,EBAU 1.5,Stream,33,189,8,25.995151515151516,1986,2013,39.72495,-76.59534,PA
42SRBCWQ_WQX-EBCD000.0-3976,EBCD 0.0,Stream,1,16,16,16,1985,1985,39.895,-76.74083333,PA
42SRBCWQ_WQX-EBOC005.3-3976,EBOC 5.3,Stream,4,20.6,17,18.9,1985,2011,39.84611111,-76.02083333,PA
42SRBCWQ_WQX-EBRR004.9-4176,EBRR 4.9,Stream,4,15,11,12.85,1982,2008,41.07444444,-76.29611111,PA
42SRBCWQ_WQX-EBSS000.5-4077,EBSS 0.5,Stream,3,5.24,4.22,4.566666666666666,2004,2010,40.5795,-77.8585,PA
42SRBCWQ_WQX-EBWC000.4-4176,EBWC 0.1,Stream,1,12.8,12.8,12.8,2014,2014,41.78583333,-76.06805556,PA
42SRBCWQ_WQX-ECON000.0-4076,ECON 0.0,Stream,4,26.9,17,23.075,1985,2011,40.1475,-76.69944444,PA
42SRBCWQ_WQX-EFSH003.4-4176,EFSH 3.4,Stream,1,1.17,1.17,1.17,2008,2008,41.31222222,-76.34972222,PA
42SRBCWQ_WQX-EHRV000.1-4175,EHRV 0.1,Stream,2,42,24.1,33.05,2001,2008,41.25194444,-75.99861111,PA
42SRBCWQ_WQX-ELKC000.1-4077,ELKC 0.1,Stream,3,3.69,3,3.4366666666666665,1985,2010,40.52916667,-77.39583333,PA
42SRBCWQ_WQX-ELKC009.8-4077,ELKC 9.8,Stream,2,0.83,0.68,0.755,2004,2010,40.5475,-77.52666667,PA
42SRBCWQ_WQX-ELKN000.1-4077,ELKN 0.1,Stream,5,8.4,6,6.702,1985,2011,40.86916667,-77.45861111,PA
42SRBCWQ_WQX-ELWR000.1-4175,ELWR 0.1,Stream,2,6.16,6,6.08,2001,2008,41.70611111,-75.4825,PA
42SRBCWQ_WQX-EMAH000.2-4076,EMAH 0.2,Stream,5,8.32,7,7.564,1985,2011,40.60722222,-76.92416667,PA
42SRBCWQ_WQX-EMAH017.1-4076,EMAH 17.1,Stream,4,10,7,8.6475,1985,2011,40.65861111,-76.68166667,PA
42SRBCWQ_WQX-EMAH023.5-4076,EMAH 23.5,Stream,1,7.6,7.6,7.6,2011,2011,40.673962,-76.614793,PA
42SRBCWQ_WQX-ETNK001.0-4175,ETNK 1.0,Stream,2,18,15.2,16.6,2001,2008,41.64694444,-75.70416667,PA
42SRBCWQ_WQX-ETNK010.0-4175,ETNK 10.0,Stream,2,10,8.92,9.46,2001,2008,41.67055556,-75.57722222,PA
42SRBCWQ_WQX-FELL000.1-4176,FELL 0.1,Stream,1,0.78,0.78,0.78,2006,2006,41.68555556,-76.9375,PA
42SRBCWQ_WQX-FISH002.1-4177,FISH 2.1,Stream,4,16.6,10,14.025,1983,2015,41.09555556,-77.47972222,PA
42SRBCWQ_WQX-FISH002.2-4176,FSH1.5,Stream,4,8,7.32,7.83,1982,2008,41.00194444,-76.46388889,PA
42SRBCWQ_WQX-FISH013.3-4177,FISH13.3,Stream,1,9.6,9.6,9.6,2002,2002,41.00666667,-77.53361111,PA
42SRBCWQ_WQX-FISH019.5-4176,FISH 19.5,Stream,4,6,3.84,5.46,1982,2008,41.15277778,-76.36888889,PA
42SRBCWQ_WQX-FRNK000.2-4078,FRANKSTOWN B,Stream,1,24.1,24.1,24.1,2016,2016,40.56093,-78.07125,PA
42SRBCWQ_WQX-FRNK001.6-4078,FRNK 1.6,Stream,4,34,21.8,27.595,1985,2016,40.555,-78.09611111,PA
42SRBCWQ_WQX-FRNK018.9-4078,FRNK 18.9,Stream,4,45.4,26.5,39.35,1985,2011,40.46305556,-78.2,PA
42SRBCWQ_WQX-FRNK032.5-4078,FRNK 32.5,Stream,4,86,26.5,47.65,1985,2010,40.42833333,-78.36583333,PA
42SRBCWQ_WQX-FRNK038.1-4078,FRNK 38.1,Stream,3,50.1,17.2,38.36,2004,2016,40.3775,-78.4175,PA
42SRBCWQ_WQX-FRST005.3-4178,FRST5.3,Stream,3,6.3,2.48,4.26,1983,2009,41.38111111,-78.03833333,PA
42SRBCWQ_WQX-FRST019.1-4178,FRST19.1,Stream,3,8.7,3.14,4.996666666666666,2002,2009,41.53,-78.02138889,PA
42SRBCWQ_WQX-GARD000.4-4175,GARD 0.4,Stream,2,32,21.9,26.95,2001,2008,41.39305556,-75.8175,PA
42SRBCWQ_WQX-GIFF001.6-4178,GIFF1.6,Stream,2,1.1,0.6,0.8500000000000001,2002,2009,41.17277778,-78.23805556,PA
42SRBCWQ_WQX-GRAN000.6-4077,GRANVILLE,Stream,1,1.3,1.3,1.3,2016,2016,40.57131,-77.5759,PA
42SRBCWQ_WQX-GRAY000.5-4177,Grays,Stream,1,1.6,1.6,1.6,2014,2014,41.426528,-77.019292,PA
42SRBCWQ_WQX-GREN001.1-4176,GREN 1.1,Stream,3,13,7.77,9.543333333333333,2001,2008,41.09444444,-76.41194444,PA
42SRBCWQ_WQX-GTRC002.9-4078,GTRC 2.9,Stream,7,5.96,2,4.348571428571429,1985,2016,40.32083333,-78.12194444,PA
42SRBCWQ_WQX-HALT000.6-4078,HALT 0.6,Stream,4,35.56,30.3,31.740000000000002,2004,2010,40.3589,-78.4175,PA
42SRBCWQ_WQX-HALT002.2-4078,HALT2.2,Stream,4,58.6,21.6,34.6,2005,2006,40.352841,-78.407949,PA
42SRBCWQ_WQX-HALT002.3-4078,HALT2.3,Stream,4,49.9,24.7,38.3,2005,2006,40.351833,-78.406283,PA
42SRBCWQ_WQX-HALT003.2-4078,HALT3.2,Stream,5,37.8,20.3,26.74,2005,2006,40.342838,-78.403182,PA
42SRBCWQ_WQX-HALT003.9-4078,HALT3.9,Stream,4,17.7,11.4,15.325,2005,2006,40.3339,-78.4073,PA
42SRBCWQ_WQX-HALT004.1-4078,HALT4.1,Stream,6,13.6,7,9.571666666666667,2005,2006,40.33,-78.4094,PA
42SRBCWQ_WQX-HALT008.7-4078,HALT8.7,Stream,5,6.53,3.41,4.95,2005,2006,40.2853,-78.4189,PA
42SRBCWQ_WQX-HALT100.0-4078,HALTT1,Stream,5,14.2,10.4,12.3,2005,2006,40.3217,-78.4106,PA
42SRBCWQ_WQX-HALT200.0-4078,HALTT2,Stream,3,3.64,1.79,2.4966666666666666,2005,2006,40.3103,-78.4169,PA
42SRBCWQ_WQX-HAMM000.2-4076,HAMM 0.2,Stream,5,19.2,14,16.82,1985,2011,40.16472222,-76.23583333,PA
42SRBCWQ_WQX-HARV000.1-4176,HARV 0.1,Stream,4,21,12,17.1,1982,2008,41.22083333,-76.01527778,PA
42SRBCWQ_WQX-HARV008.9-4176,HARV 8.9,Stream,4,19,9,14.175,1982,2008,41.30666667,-76.0575,PA
42SRBCWQ_WQX-HBTM002.2-4175,HBTM 2.2,Stream,1,11.9,11.9,11.9,2014,2014,41.73383,-75.7896,PA
42SRBCWQ_WQX-HICK000.5-4175,HICK 0.5,Stream,1,18.9,18.9,18.9,2009,2009,41.34111111,-75.805,PA
42SRBCWQ_WQX-HILL000.2-4177,HILL 0.2,Stream,4,8,6.87,7.3875,1997,2012,41.85638889,-77.22555556,PA
42SRBCWQ_WQX-HKBC000.1-4078,HKBC 0.1,Stream,2,6.25,5.55,5.9,2004,2010,40.1922,-78.3751,PA
42SRBCWQ_WQX-HKBT000.1-4078,HKBT0.1,Stream,4,9.89,5.4,7.42,2005,2006,40.192456,-78.375725,PA
42SRBCWQ_WQX-HONY000.2-4077,HONY 0.2,Stream,5,4.03,3.2,3.7840000000000003,1985,2016,40.66527778,-77.5925,PA
42SRBCWQ_WQX-HSVR000.5-4077,HSVR 0.5,Stream,2,1.88,1.28,1.58,2004,2010,40.3634,-77.6081,PA
42SRBCWQ_WQX-HUNL001.7-4176,HUNL 1.7,Stream,4,19,10,13.9,1982,2008,41.21027778,-76.08888889,PA
42SRBCWQ_WQX-HUNL004.5-4176,HUNL 4.5,Stream,2,48,21,34.5,1982,1993,41.24666667,-76.09805556,PA
42SRBCWQ_WQX-HUNT000.3-4176,HUNT 0.3,Stream,5,11,8,8.792,1982,2014,41.10694444,-76.35638889,PA
42SRBCWQ_WQX-HUNT011.1-4176,HNT5.0,Stream,1,11,11,11,2001,2001,41.17361111,-76.2225,PA
42SRBCWQ_WQX-HYNR000.1-4177,HYNR0.1,Stream,1,3.5,3.5,3.5,2002,2002,41.3325,-77.64666667,PA
42SRBCWQ_WQX-JACK002.9-4077,JACK 2.9,Stream,4,8.28,6.6,7.0225,2004,2011,40.61277778,-77.53194444,PA
42SRBCWQ_WQX-JACK011.7-4077,JACK 11.7,Stream,3,10.37,8.17,8.92,2004,2010,40.6718,-77.4156,PA
42SRBCWQ_WQX-JEMI007.7-4177,JEMI7.7,Stream,2,2.1,1.16,1.63,2006,2012,41.8384,-77.4891,PA
42SRBCWQ_WQX-JOHN000.1-4177,JOHN 0.1,Stream,3,14,9.31,11.57,1997,2012,41.6775,-77.06916667,PA
42SRBCWQ_WQX-JUNR002.0-4077,JUN 2.9,Stream,13,45.4,10.6,21.59307692307692,1985,2016,40.42527778,-77.01638889,PA
42SRBCWQ_WQX-JUNR017.3-4077,JUN 17.3,Stream,3,16.76,9.63,14.13,1985,2010,40.53972222,-77.15083333,PA
42SRBCWQ_WQX-JUNR034.0-4077,JUN 34.0,Stream,4,17.44,9.31,13.8375,1985,2011,40.56833333,-77.40027778,PA
42SRBCWQ_WQX-JUNR040.0-4077,JUNR 40,Stream,5,22.1,13.7,19.5,2012,2016,40.60686,-77.470225,PA
42SRBCWQ_WQX-JUNR047.0-4077,JUN 47.0,Stream,5,18.5,10.7,13.886,1985,2011,40.59388889,-77.58,PA
42SRBCWQ_WQX-JUNR063.6-4077,JUN 63.6,Stream,3,18.15,10.5,14.716666666666667,2004,2011,40.50083333,-77.7375,PA
42SRBCWQ_WQX-JUNR074.0-4077,JUNR74,Stream,5,22.4,15.7,20.46,2012,2015,40.385933,-77.872994,PA
42SRBCWQ_WQX-JUNR084.6-4077,JUNR 84.6,Stream,4,22.4,9.49,15.9475,1985,2016,40.39222222,-77.93527778,PA
42SRBCWQ_WQX-JUNR094.0-4078,JUN 94.0,Stream,4,25.6,15.2,20.625,1985,2016,40.48611111,-78.01944444,PA
42SRBCWQ_WQX-KELM001.3-4175,KELM 1.3,Stream,1,19.4,19.4,19.4,2014,2014,41.35802,-75.5015,PA
42SRBCWQ_WQX-KETT027.0-4177,Kettle,Stream,5,4.8,2,3.1,2012,2014,41.499699,-77.770681,PA
42SRBCWQ_WQX-KING005.9-4176,KING 5.9,Stream,1,1.3,1.3,1.3,2015,2015,41.56318,-76.62038,PA
42SRBCWQ_WQX-KISH000.4-4077,KISH 0.4,Stream,5,13.8,10,12.08,1985,2016,40.59694444,-77.57055556,PA
42SRBCWQ_WQX-KISH005.5-4077,KISH 5.5,Stream,4,13,9.66,11.1475,2004,2011,40.65472222,-77.58333333,PA
42SRBCWQ_WQX-KISH006.7-4077,KISH 6.7,Stream,1,13,13,13,1985,1985,40.66555556,-77.59833333,PA
42SRBCWQ_WQX-KISH015.6-4077,KISH 15.6,Stream,2,16.6,15.2,15.9,2004,2010,40.60305556,-77.7125,PA
42SRBCWQ_WQX-KNSV000.3-4077,KANASA,Stream,1,1.1,1.1,1.1,2016,2016,40.34455,-77.58861,PA
42SRBCWQ_WQX-KRAT000.1-4078,KRAT0.1,Stream,3,15.9,11,13.433333333333334,2002,2015,40.97666667,-78.5475,PA
42SRBCWQ_WQX-KRTZ001.5-4076,KRTZ 1.5,Stream,5,32.1,16,25.740000000000002,1985,2011,40.01573633,-76.5402547,PA
42SRBCWQ_WQX-KTCH000.5-4176,Kitchen,Stream,1,10.4,10.4,10.4,2014,2014,41.233657,-76.242822,PA
42SRBCWQ_WQX-KTTL000.2-4177,KTTL0.2,Stream,3,3,2.2,2.7,1983,2015,41.30055556,-77.84083333,PA
42SRBCWQ_WQX-KTTL002.1-4177,KTTL2.1,Stream,2,3.1,1,2.05,1983,2002,41.31305556,-77.86444444,PA
42SRBCWQ_WQX-KTTL023.5-4177,KTTL 23.5,Stream,1,3,3,3,1983,1983,41.4758333,-77.826111,PA
42SRBCWQ_WQX-KTTL025.3-4177,KTTL25.3,Stream,2,3.8,2.12,2.96,2002,2009,41.49444444,-77.79777778,PA
42SRBCWQ_WQX-KTTL034.1-4177,KTTL34.1,Stream,1,3.1,3.1,3.1,2002,2002,41.55916667,-77.68055556,PA
42SRBCWQ_WQX-LACK041.8-4175,LACK,Stream,1,6.6,6.6,6.6,2014,2014,41.683305,-75.473242,PA
42SRBCWQ_WQX-LAND001.7-4178,LAND1.7,Stream,3,14.4,9,12.033333333333333,2002,2015,41.05416667,-78.65583333,PA
42SRBCWQ_WQX-LARL003.2-4178,LARL3.2,Stream,1,4.8,4.8,4.8,2002,2002,41.24444444,-78.47083333,PA
42SRBCWQ_WQX-LARR002.9-4177,LARR2.9,Stream,4,10.8,3.63,6.407500000000001,1983,2015,41.24916667,-77.22638889,PA
42SRBCWQ_WQX-LATI000.6-4077,LATI 0.6,Stream,1,11,11,11,1985,1985,40.00888889,-77.06777778,PA
42SRBCWQ_WQX-LAUG000.1-4077,LAUG 0.1,Stream,4,17.81,9.92,14.86,1985,2010,40.12722222,-77.95638889,PA
42SRBCWQ_WQX-LAUR000.1-4078,LAUR0.1,Stream,4,13.8,6,11.65,1983,2015,40.90694444,-78.22694444,PA
42SRBCWQ_WQX-LAUR001.6-4077,LAUREL MOD,Stream,5,19.1,8.2,12.58,2016,2016,40.878284,-77.960123,PA
42SRBCWQ_WQX-LAUR002.3-4178,LAUR 2.3,Stream,1,16.4,16.4,16.4,2015,2015,41.10117,-78.07929,PA
42SRBCWQ_WQX-LAWR000.8-4175,LAWR 0.8,Stream,4,64.7,32,50.175,1982,2008,41.34666667,-75.78027778,PA
42SRBCWQ_WQX-LAWR004.2-4175,LAWR 4.2,Stream,7,58,37.9,44.08571428571428,1982,2014,41.35611111,-75.72777778,PA
42SRBCWQ_WQX-LAWR017.9-4175,LAWR 17.9,Stream,4,32,18,25.325,1982,2008,41.47444444,-75.6,PA
42SRBCWQ_WQX-LAWR035.2-4175,LAWR 35.2,Stream,4,9,5,7.4399999999999995,1982,2008,41.64861111,-75.46194444,PA
42SRBCWQ_WQX-LBUF000.1-4077,LBUF0.1,Stream,2,11.65,8.15,9.9,2004,2010,40.67777778,-78.30472222,PA
42SRBCWQ_WQX-LBUF002.1-4077,LBUF 2.1,Stream,2,10.68,7.37,9.025,2004,2010,40.4574,-77.1677,PA
42SRBCWQ_WQX-LCHQ000.4-4076,LCHK 0.4,Stream,4,101,22,50.15,1985,2011,40.07805556,-76.51083333,PA
42SRBCWQ_WQX-LCLF000.1-4078,LCLF0.1,Stream,3,9.61,6,7.97,1983,2009,40.97,-78.40722222,PA
42SRBCWQ_WQX-LCNT001.7-3976,LCNT 1.7,Stream,4,47.2,31,37.675,1985,2011,39.95777778,-76.37166667,PA
42SRBCWQ_WQX-LCON001.5-4076,LCON 1.5,Stream,5,34.6,18,25.18,1985,2011,40.06527778,-76.74722222,PA
42SRBCWQ_WQX-LEGT000.1-4175,LEGT 0.1,Stream,4,179,88,130.75,1982,2008,41.44472222,-75.64444444,PA
42SRBCWQ_WQX-LFSH000.1-4176,LFSH 0.1,Stream,6,13,7.8,10.196666666666667,1982,2014,41.01888889,-76.47638889,PA
42SRBCWQ_WQX-LFSH015.9-4176,LFSH10.0,Stream,3,6,4.46,4.993333333333333,2001,2008,41.19555556,-76.47277778,PA
42SRBCWQ_WQX-LICE000.2-4177,LICE0.2,Stream,2,2,2,2,1983,2002,41.17277778,-77.51472222,PA
42SRBCWQ_WQX-LICK000.3-4178,LICK0.3,Stream,4,7,5,5.675,1983,2015,41.05055556,-78.38555556,PA
42SRBCWQ_WQX-LITL000.4-4176,LITL0.4,Stream,2,7.55,5.8,6.675,2002,2009,41.49194444,-76.6,PA
42SRBCWQ_WQX-LJUN003.8-4078,LJUN 3.8,Stream,5,22.71,10.3,17.742,2004,2016,40.59083333,-78.10972222,PA
42SRBCWQ_WQX-LJUN007.0-4078,LJUN 7.0,Stream,1,11,11,11,1985,1985,40.61277778,-78.14583333,PA
42SRBCWQ_WQX-LJUN015.0-4078,LJUN 15.0,Stream,2,24.7,13,18.85,1985,2010,40.66805556,-78.2325,PA
42SRBCWQ_WQX-LJUN019.4-4078,LJUN 19.4,Stream,2,44.41,18.1,31.255,2004,2010,40.63138889,-78.28277778,PA
42SRBCWQ_WQX-LJUN029.6-4078,LJUN 29.6,Stream,2,53.8,21.5,37.65,2004,2010,40.54944444,-78.36722222,PA
42SRBCWQ_WQX-LLOS000.5-4077,LLOS 0.5,Stream,2,19.52,13.5,16.509999999999998,2004,2010,40.6048,-77.3104,PA
42SRBCWQ_WQX-LLSC000.6-4076,LLSC 0.6,Stream,1,6,6,6,1985,1985,40.53722222,-76.37666667,PA
42SRBCWQ_WQX-LLSK001.2-4176,LLSK1.2,Stream,4,6.1,2.9,4.2299999999999995,1983,2015,41.25,-76.93527778,PA
42SRBCWQ_WQX-LLSK023.9-4176,LLSK 23.9,Stream,1,5,5,5,1983,1983,41.49194444,-76.60305556,PA
42SRBCWQ_WQX-LLSK037.2-4176,LLSK37.2,Stream,3,4.5,2,3.0633333333333335,2002,2015,41.48611111,-76.59916667,PA
42SRBCWQ_WQX-LMEH000.8-4176,LMEHOOP,Stream,5,16.4,11.8,14.16,2013,2014,41.58154,-76.0698,PA
42SRBCWQ_WQX-LMUN000.1-4176,LMUN0.1,Stream,2,6.5,5.85,6.175,2002,2009,41.20638889,-76.745,PA
42SRBCWQ_WQX-LNGA002.5-3976,LNGA 2.5,Stream,15,25.98,13.1,17.053333333333335,2009,2013,39.73198,-76.98344,PA
42SRBCWQ_WQX-LNSK000.1-4176,LNSK 0.1,Stream,4,36.5,21,28.6,1982,2014,41.00944444,-76.07444444,PA
42SRBCWQ_WQX-LNSK005.7-4175,LNSK 5.7,Stream,1,44.6,44.6,44.6,2014,2014,41.0109,-75.9891,PA
42SRBCWQ_WQX-LOSC000.2-4077,LOSC 0.2,Stream,1,7.1,7.1,7.1,2010,2010,40.5912,-77.4055,PA
42SRBCWQ_WQX-LOSC001.8-4077,LOSC 1.8,Stream,1,6.7,6.7,6.7,2016,2016,40.59982,-77.39148,PA
42SRBCWQ_WQX-LOYS012.4-4176,LOYS 12.4,Stream,1,5.5,5.5,5.5,2015,2015,41.36427,-76.8743,PA
42SRBCWQ_WQX-LPIN000.2-4177,LPIN0.2,Stream,3,7.8,5,5.966666666666667,1983,2009,41.31,-77.36277778,PA
42SRBCWQ_WQX-LPIN005.6-4177,LPIN 5.6,Stream,2,5.6,5.5,5.55,2015,2015,41.37518,-77.36117,PA
42SRBCWQ_WQX-LPIN011.5-4177,LPIN11.5,Stream,3,10.1,6.9,8,1983,2009,41.43472222,-77.28944444,PA
42SRBCWQ_WQX-LRLN000.8-4077,LRLN 0.8,Stream,4,4.12,2,2.88,1985,2011,40.89416667,-77.2025,PA
42SRBCWQ_WQX-LRLR001.0-4175,LRLR 1.0,Stream,1,13.8,13.8,13.8,2014,2014,41.4864,-75.5267,PA
42SRBCWQ_WQX-LRLR001.4-4078,LAUREL HIGH,Stream,4,28.1,19.3,23.375,2016,2016,40.80972222,-78.07138889,PA
42SRBCWQ_WQX-LRLS000.5-4077,LRLS 0.5,Stream,5,2.3,1,1.526,1985,2011,40.33694444,-77.34222222,PA
42SRBCWQ_WQX-LSHK000.1-4176,LSHK 0.1,Stream,2,5.43,5,5.215,2001,2008,41.15416667,-76.155,PA
42SRBCWQ_WQX-LSHM000.8-4076,LSHM 0.8,Stream,4,12.2,10,11.075,1985,2011,40.8593017,-76.7667408,PA
42SRBCWQ_WQX-LSNK007.6-4175,LSNK 7.6,Stream,17,27,6,13.814117647058824,2009,2012,41.99724,-75.89905,PA
42SRBCWQ_WQX-LSWT000.6-4076,LSWT 0.6,Stream,5,25,15,19.46,1985,2011,40.40777778,-76.47527778,PA
42SRBCWQ_WQX-LTRO000.8-4078,LTRO 0.8,Stream,2,4.21,2.71,3.46,2004,2010,40.2976,-78.0583,PA
42SRBCWQ_WQX-LTRT000.1-4077,LTRT 0.1,Stream,5,42.9,26.2,33.46,1985,2011,40.23416667,-77.13944444,PA
42SRBCWQ_WQX-LWAP000.6-4176,LWAP,Stream,1,4.7,4.7,4.7,2012,2012,41.99666667,-76.38166667,PA
42SRBCWQ_WQX-LWWP000.5-4176,LWWP0.1,Stream,3,34,7,17.666666666666668,1982,2001,41.09583333,-76.12,PA
42SRBCWQ_WQX-LWWP004.5-4176,LWWP6.7,Stream,3,49,18,29.333333333333332,1982,2001,41.10611111,-76.07305556,PA
42SRBCWQ_WQX-LYCO002.0-4177,LYCO2.0,Stream,4,11.8,5.1,7.37,1983,2015,41.25277778,-77.04166667,PA
42SRBCWQ_WQX-LYCO017.7-4177,LYCO17.7,Stream,3,6,2.87,3.9233333333333333,1983,2009,41.41805556,-77.03361111,PA
42SRBCWQ_WQX-LYSK005.0-4176,LYSK5.0,Stream,3,4.1,2.6,3.466666666666667,2012,2014,41.45879746,-76.33103915,PA
42SRBCWQ_WQX-MAHO001.4-4076,MAHO 1.4,Stream,5,49,21,37.88,1982,2014,40.965,-76.61805556,PA
42SRBCWQ_WQX-MAHO005.9-4176,MAHO 5.9,Stream,3,16,14.4,14.966666666666667,2001,2008,41.01055556,-76.61138889,PA
42SRBCWQ_WQX-MARS000.8-4177,MARS,Stream,4,12.2,10.1,11.025,2013,2014,41.060222,-77.609967,PA
42SRBCWQ_WQX-MARS001.2-4177,MARS0.1,Stream,1,8.4,8.4,8.4,2002,2002,41.0615781,-77.61677005,PA
42SRBCWQ_WQX-MART006.5-4175,MART 6.5,Stream,2,15.8,15.8,15.8,2008,2008,41.7055,-75.7674,PA
42SRBCWQ_WQX-MCCR001.0-4078,MCCR1.0,Stream,3,10,6,7.666666666666667,1983,2009,40.89222222,-78.65888889,PA
42SRBCWQ_WQX-MCEL002.0-4177,MCEL2.0,Stream,3,1.9,1,1.3566666666666667,1983,2009,41.13972222,-77.34388889,PA
42SRBCWQ_WQX-MDDY003.3-3976,MDDY 3.3,Stream,4,14.2,9,11.65,1985,2011,39.7725,-76.31611111,PA
42SRBCWQ_WQX-MEDX000.1-4178,MEDX0.1,Stream,2,10.2,2.77,6.484999999999999,2002,2009,41.28444444,-78.39694444,PA
42SRBCWQ_WQX-MEHO001.5-4176,MEHO 1.5,Stream,6,6,3,3.5216666666666665,1982,2014,41.56,-76.06777778,PA
42SRBCWQ_WQX-MEHO006.4-4176,MEHO 6.4,Stream,4,2,1,1.6275,1982,2008,41.53361111,-76.12305556,PA
42SRBCWQ_WQX-MEHO011.2-4176,MEHO 11.2,Stream,2,1.59,1,1.295,2001,2008,41.47333333,-76.14444444,PA
42SRBCWQ_WQX-MESH000.2-4176,MESH 0.2,Stream,5,13.2,9,11.26,1982,2014,41.61388889,-76.04666667,PA
42SRBCWQ_WQX-MESH004.5-4175,MESH,Stream,1,12.3,12.3,12.3,2014,2014,41.61164,-75.984739,PA
42SRBCWQ_WQX-MESH004.6-4175,MESH 4.6,Stream,3,14,8,10.9,1993,2008,41.61111111,-75.98138889,PA
42SRBCWQ_WQX-MESH020.6-4175,MESH 20.6,Stream,3,10,8,8.673333333333334,2001,2008,41.75,-75.85027778,PA
42SRBCWQ_WQX-MHNY000.3-4076,MHNY 0.3,Stream,5,12.5,7,10.46,1985,2011,40.72555556,-76.83833333,PA
42SRBCWQ_WQX-MIDD000.0-4076,MIDD 0.0,Stream,1,16.8,16.8,16.8,2011,2011,40.16483,-76.2325,PA
42SRBCWQ_WQX-MIDD000.2-4076,MIDD 0.2,Stream,3,47,14,26.2,1985,2005,40.17722222,-76.24083333,PA
42SRBCWQ_WQX-MIDL000.7-4076,MIDL 0.7,Stream,4,8,6.3,7.1899999999999995,1985,2011,40.76861111,-76.87472222,PA
42SRBCWQ_WQX-MIDL024.7-4077,MIDL 24.7,Stream,5,6,5.23,5.672000000000001,1985,2011,40.76194444,-77.20972222,PA
42SRBCWQ_WQX-MILL000.1-4178,MILL1.0,Stream,2,68,45,56.5,1982,1985,41.23027778,-78.54944444,PA
42SRBCWQ_WQX-MILL000.3-4076,MILL 0.3,Stream,3,130,48,75.8,1996,2011,40.00472222,-76.30083333,PA
42SRBCWQ_WQX-MILL000.3-4077,MILL 0.3,Stream,3,8.8,8.1,8.43,2004,2010,40.437941,-77.932207,PA
42SRBCWQ_WQX-MILL001.4-4177,MILL 0.1,Stream,3,9.7,8.1,8.65,2006,2012,41.87333333,-77.10194444,PA
42SRBCWQ_WQX-MILL006.7-4175,MILL 6.7,Stream,2,54,38.2,46.1,2001,2008,41.25805556,-75.77805556,PA
42SRBCWQ_WQX-MISP000.5-4077,MISP 0.5,Stream,5,29.9,22,26.78,1985,2011,40.09833333,-77.56166667,PA
42SRBCWQ_WQX-MNDA000.1-4076,MNDA 0.1,Stream,4,25.5,7,13.7,1985,2011,40.30611111,-76.66944444,PA
42SRBCWQ_WQX-MNTN003.0-4077,MNTN 3.0,Stream,6,7,3,5.27,1985,2011,40.10833333,-77.18305556,PA
42SRBCWQ_WQX-MNTR001.8-4076,MNTR 1.8,Stream,1,20.1,20.1,20.1,2014,2014,40.97459,-76.5022,PA
42SRBCWQ_WQX-MONT000.2-4178,MONT0.2,Stream,3,10,8.16,8.786666666666667,2002,2015,41.00333333,-78.46111111,PA
42SRBCWQ_WQX-MORG000.2-4078,MORG08,Stream,2,8.81,7.6,8.205,2009,2015,40.95809647,-78.40103637,PA
42SRBCWQ_WQX-MORR000.8-4177,MORR 0.8,Stream,3,5,4.22,4.506666666666667,1997,2012,41.66305556,-77.03972222,PA
42SRBCWQ_WQX-MOSH005.1-4178,MOSH5.1,Stream,4,13.6,8,11.825,1983,2015,41.03638889,-78.05888889,PA
42SRBCWQ_WQX-MOSH019.1-4078,MOSH19.1,Stream,3,14.6,13.7,14.166666666666666,2002,2015,40.94527778,-78.12138889,PA
42SRBCWQ_WQX-MOSH039.9-4078,MOSH39.9,Stream,4,8.94,6,8.01,1983,2015,40.85055556,-78.26583333,PA
42SRBCWQ_WQX-MOSQ000.2-4177,MOSQ0.2,Stream,5,4,3.1,3.378,1983,2015,41.22222222,-77.03833333,PA
42SRBCWQ_WQX-MQTO001.0-4178,MQTO1.0,Stream,3,7,2.3,4.2,1983,2009,41.1225,-78.12222222,PA
42SRBCWQ_WQX-MQTO013.8-4178,MQTO13.8,Stream,2,1.8,1.28,1.54,2002,2009,41.21555556,-78.24361111,PA
42SRBCWQ_WQX-MRSH001.6-4177,MRSH1.6,Stream,2,19.8,8.38,14.09,2002,2009,41.76305556,-77.41361111,PA
42SRBCWQ_WQX-MUDD000.2-4076,MUDD 0.2,Stream,4,42.7,25.2,30.15,1985,2011,40.17083333,-76.10583333,PA
42SRBCWQ_WQX-MUDD000.3-4078,MUDD0.3,Stream,3,10.8,7.2,9.433333333333334,2002,2015,40.81888889,-78.43694444,PA
42SRBCWQ_WQX-MUDD004.5-4078,MUDD4.5,Stream,2,7.5,5.7,6.6,2002,2015,40.76888889,-78.44722222,PA
42SRBCWQ_WQX-MUNC001.1-4176,MUNC1.1,Stream,4,14.6,6.14,9.485,1983,2015,41.21777778,-76.78666667,PA
42SRBCWQ_WQX-MUNC018.8-4176,MUNC18.8,Stream,2,5.5,4.76,5.13,2002,2009,41.31444444,-76.61555556,PA
42SRBCWQ_WQX-NATK000.4-4175,NATK 0.4,Stream,4,66,15,40.725,1982,2008,41.20861111,-75.98555556,PA
42SRBCWQ_WQX-NBBC000.0-4076,NBBC 0.0,Stream,1,14,14,14,1985,1985,40.01416667,-76.98972222,PA
42SRBCWQ_WQX-NBLA001.4-4077,NBLA 1.4,Stream,5,23.2,12.6,18.848,2004,2011,40.091,-77.9029,PA
42SRBCWQ_WQX-NBMY000.0-3976,NBMY 0.0,Stream,3,14.6,9,11.2,1985,2011,39.80777778,-76.47611111,PA
42SRBCWQ_WQX-NBTC003.1-4077,NBTC 3.1,Stream,2,7.24,4.93,6.085,2004,2010,40.24861111,-77.70472222,PA
42SRBCWQ_WQX-NBWC002.8-4176,NBWC 2.8,Stream,1,13,13,13,2008,2008,41.82194444,-76.10027778,PA
42SRBCWQ_WQX-NESK001.1-4176,NSK0.7,Stream,4,28,13,20.25,1982,2001,41.04361111,-76.22222222,PA
42SRBCWQ_WQX-NESK014.7-4176,NSK13.2,Stream,4,28.4,12,19.6,1982,2014,41.00777778,-76.10138889,PA
42SRBCWQ_WQX-NESK019.1-4176,NSK13.9,Stream,4,25,11,17.05,1982,2014,41.01722222,-76.05083333,PA
42SRBCWQ_WQX-NFCR000.1-4177,NFCO 0.1,Stream,4,15,11,13.825,1997,2012,41.91805556,-77.56027778,PA
42SRBCWQ_WQX-NMHO000.1-4176,NMHO 0.1,Stream,3,6,4.85,5.383333333333333,2001,2014,41.53444444,-76.12416667,PA
42SRBCWQ_WQX-NMHT000.0-4076,NMHT 0.0,Stream,5,7.8,5.56,6.812,1985,2011,40.6475,-76.96611111,PA
42SRBCWQ_WQX-NMID000.7-4077,NMID 0.7,Stream,4,5.4,4,4.8525,1985,2011,40.77333333,-77.19861111,PA
42SRBCWQ_WQX-NSPR002.7-4078,N SPRING,Stream,1,6.8,6.8,6.8,2016,2016,40.22016,-78.01107,PA
42SRBCWQ_WQX-NWPT000.2-4176,NPT1,Stream,1,8,8,8,1982,1982,41.21145844,-76.00758858,PA
42SRBCWQ_WQX-NWPT000.5-4176,NWPT 0.5,Stream,4,21.4,10,15.375,1993,2014,41.20777778,-76.00638889,PA
42SRBCWQ_WQX-OPSM000.2-3977,OPSM 0.2,Stream,1,14,14,14,1985,1985,39.93111111,-77.18833333,PA
42SRBCWQ_WQX-ORGN001.3-4078,ORGEON,Stream,1,84.2,84.2,84.2,2016,2016,40.05736,-78.14786,PA
42SRBCWQ_WQX-PADY000.1-4177,PADY0.1,Stream,2,3,1.5,2.25,1983,2002,41.33138889,-77.73111111,PA
42SRBCWQ_WQX-PARK000.5-4176,PARK,Stream,2,10,5,7.5,1987,2012,41.99805556,-76.46027778,PA
42SRBCWQ_WQX-PAXT000.5-4076,PAXT 0.5,Stream,4,102,42,76.5,1985,2011,40.25027778,-76.86694444,PA
42SRBCWQ_WQX-PAXT008.4-4076,PAXT 8.4,Stream,4,72.3,22,48.625,1985,2011,40.30805556,-76.85,PA
42SRBCWQ_WQX-PENN005.0-4076,PENN 5.0,Stream,4,6.14,5,5.734999999999999,1985,2011,40.82555556,-76.87277778,PA
42SRBCWQ_WQX-PENN030.0-4077,PENN 30.0,Stream,4,6,5,5.505,1985,2011,40.86416667,-77.20166667,PA
42SRBCWQ_WQX-PENN050.6-4077,PENN 50.6,Stream,5,8.92,7.5,8.264,1985,2011,40.8626,-77.4641,PA
42SRBCWQ_WQX-PENN058.9-4077,PENN 58.9,Stream,1,10,10,10,1985,1985,40.85472222,-77.56972222,PA
42SRBCWQ_WQX-PINE000.1-4076,EPIN 0.1,Stream,4,7.92,6,6.605,1985,2011,40.65027778,-76.69083333,PA
42SRBCWQ_WQX-PINE000.8-4077,WPIN 0.8,Stream,4,5.5,4,4.9725,1985,2011,40.86944444,-77.45388889,PA
42SRBCWQ_WQX-PINE001.1-4177,PINE1.1,Stream,4,7.6,3.43,5.3075,1983,2015,41.18194444,-77.28083333,PA
42SRBCWQ_WQX-PINE012.8-4076,PINE4.0,Stream,5,7.18,4,5.528,1985,2011,40.636061,-76.56785,PA
42SRBCWQ_WQX-PINE014.2-4177,PINE14.2,Stream,3,8,3.57,5.8566666666666665,1983,2009,41.31111111,-77.37916667,PA
42SRBCWQ_WQX-PINE040.3-4177,PINE40.3,Stream,3,10.2,3.21,6.803333333333333,1983,2009,41.55666667,-77.38333333,PA
42SRBCWQ_WQX-PINE057.5-4177,PINE57.5,Stream,2,7.3,2.43,4.865,2002,2009,41.74416667,-77.43444444,PA
42SRBCWQ_WQX-PINE077.1-4177,Upper Pine,Stream,5,11.2,5.3,7.24,2012,2014,41.790114,-77.761231,PA
42SRBCWQ_WQX-PINY000.3-4078,PINY0.3,Stream,8,12.7,9.1,10.92625,2004,2010,40.4545,-78.25,PA
42SRBCWQ_WQX-PINY005.9-4078,PINY5.9,Stream,5,20.9,7.46,12.532,2005,2006,40.4073,-78.28,PA
42SRBCWQ_WQX-PIPE003.0-4078,PIPERS,Stream,1,12.5,12.5,12.5,2016,2016,40.09893,-78.33558,PA
42SRBCWQ_WQX-PLST000.8-4078,PLEASANT V,Stream,1,3.3,3.3,3.3,2016,2016,40.06468,-78.46233,PA
42SRBCWQ_WQX-PLUM000.1-4078,PLUM0.1,Stream,5,59.2,16.8,38.76,2005,2006,40.352074,-78.405777,PA
42SRBCWQ_WQX-PLUM002.0-4078,PLUM2.0,Stream,5,84.8,23.2,54.1,2005,2006,40.3521,-78.3836,PA
42SRBCWQ_WQX-PLUM006.4-4078,PLUM6.4,Stream,4,260,60.7,112.075,2005,2006,40.30926,-78.3378,PA
42SRBCWQ_WQX-PLUM100.0-4078,PLUMT1,Stream,3,1.36,1.15,1.2233333333333334,2005,2006,40.361903,-78.381313,PA
42SRBCWQ_WQX-POTT000.1-4078,POTT0.1,Stream,6,7.58,5.67,6.788333333333333,2005,2006,40.1899,-78.3778,PA
42SRBCWQ_WQX-POWL000.1-4076,POWL 0.1,Stream,4,8.19,5,5.9475,1985,2011,40.40972222,-76.98416667,PA
42SRBCWQ_WQX-PQEA003.3-3976,PQEA 3.3,Stream,5,25.9,18,21.9,1985,2011,39.89805556,-76.35611111,PA
42SRBCWQ_WQX-PQEA015.2-3976,PQEA 15.2,Stream,4,26.5,18,22.275,1985,2011,39.95916667,-76.24416667,PA
42SRBCWQ_WQX-PRIN003.9-4176,PRIN,Stream,1,8.4,8.4,8.4,2012,2012,41.99388889,-76.22472222,PA
42SRBCWQ_WQX-PTRC000.1-4078,PTRC 0.1,Stream,2,9.08,7.66,8.370000000000001,2004,2010,40.1899,-78.3778,PA
42SRBCWQ_WQX-QUIT000.3-4076,QUIT 0.3,Stream,4,34.5,23,30.1,1985,2011,40.35277778,-76.61194444,PA
42SRBCWQ_WQX-RACC000.2-4077,RACC 0.2,Stream,2,4.64,4.48,4.5600000000000005,2004,2010,40.5426,-77.1574,PA
42SRBCWQ_WQX-RACC005.0-4077,RACC5.0,Stream,2,3.56,3.47,3.515,2004,2010,40.695,-78.32194444,PA
42SRBCWQ_WQX-RAYS004.6-4077,RAYS 4.6,Stream,4,18.1,6.46,11.14,1985,2016,40.43194444,-77.99833333,PA
42SRBCWQ_WQX-RAYS042.8-4078,RAYS 42.8,Stream,3,15.34,11.8,14.046666666666667,1985,2010,40.22111111,-78.25027778,PA
42SRBCWQ_WQX-RAYS054.1-4078,RAYS 54.1,Stream,4,31.4,11.3,18.8825,1985,2016,40.11638889,-78.27638889,PA
42SRBCWQ_WQX-RAYS054.8-4078,RAYS 54.8,Stream,2,30.8,30.7,30.75,2016,2016,40.10661,-78.27663,PA
42SRBCWQ_WQX-RAYS080.5-4078,RAYS 80.5,Stream,11,25.8,14,21.445454545454545,1985,2016,40.01083333,-78.3175,PA
42SRBCWQ_WQX-RAYS088.4-4078,RAYS 88.4,Stream,2,33.2,25,29.1,1985,2016,40.01861111,-78.48194444,PA
42SRBCWQ_WQX-RAYS103.0-4078,RAYS 103,Stream,4,30.26,29.1,29.745,2004,2010,40.01694444,-78.59333333,PA
42SRBCWQ_WQX-REDH000.2-4177,REDH,Stream,2,6,6,6,2012,2012,41.98805556,-77.375,PA
42SRBCWQ_WQX-ROAR000.9-4178,ROAR1.0,Stream,2,31.2,28.4,29.799999999999997,2009,2015,41.00944444,-78.39027778,PA
42SRBCWQ_WQX-RORB003.0-4175,RORB 3.0,Stream,5,92,40,58.78,1982,2008,41.40833333,-75.63527778,PA
42SRBCWQ_WQX-RORB011.4-4175,RORB 11.4,Stream,2,24,24,24,2014,2014,41.37079,-75.5394,PA
42SRBCWQ_WQX-RORB014.2-4175,RORB 14.2,Stream,2,18.4,15,16.7,2001,2008,41.33972222,-75.51444444,PA
42SRBCWQ_WQX-RORC001.7-4076,RORC 1.7,Stream,5,11.3,7.1,8.88,1982,2014,40.92027778,-76.52722222,PA
42SRBCWQ_WQX-RORC010.9-4076,RORC 10.9,Stream,4,7.96,6,6.74,1982,2008,40.915,-76.42861111,PA
42SRBCWQ_WQX-RUSS002.1-4176,RUSS,Stream,1,4.7,4.7,4.7,2012,2012,41.99555556,-76.28138889,PA
42SRBCWQ_WQX-SBCC001.2-3977,SBCC 1.2,Stream,5,29.4,21,23.96,1985,2011,39.88194444,-77.07194444,PA
42SRBCWQ_WQX-SBCC020.4-3976,SBCC 20.4,Stream,3,8.4,5,7.253333333333333,1997,2011,39.72555556,-76.94861111,PA
42SRBCWQ_WQX-SBCD000.4-3976,SBCD 0.4,Stream,5,21.7,14,16.9,1985,2011,39.92055556,-76.74916667,PA
42SRBCWQ_WQX-SBCD003.6-3976,SBCD 3.6,Stream,4,20.6,14,17.125,1985,2011,39.89527778,-76.74444444,PA
42SRBCWQ_WQX-SBEC001.4-4078,SBEC 1.4,Stream,3,8.93,7.96,8.296666666666667,1985,2010,40.68361111,-78.23388889,PA
42SRBCWQ_WQX-SBEV002.5-3976,SBEV 2.5,Stream,5,28,15,23.5,1985,2011,39.93861111,-76.2275,PA
42SRBCWQ_WQX-SBLA008.3-3977,SBLA 8.3,Stream,3,4,2.04,2.716666666666667,2004,2010,39.9906,-77.9315,PA
42SRBCWQ_WQX-SBMY000.0-3976,SBMY 0.0,Stream,4,15,9,11.925,1985,2011,39.8075,-76.47638889,PA
42SRBCWQ_WQX-SBRC000.5-4076,SBRC 0.5,Stream,4,15.4,7,11.35,1982,2008,40.90027778,-76.51166667,PA
42SRBCWQ_WQX-SBTK007.1-4175,SBTK,Stream,6,66.7,38.8,49.516666666666666,2013,2014,41.557825,-75.777879,PA
42SRBCWQ_WQX-SBTK008.0-4175,SBTK 8.0,Stream,1,27,27,27,2014,2014,41.567,-75.7703,PA
42SRBCWQ_WQX-SCHR000.2-4176,SCHR 0.2,Stream,2,1.1,1.08,1.09,2008,2014,41.70472222,-76.505,PA
42SRBCWQ_WQX-SCHR011.7-4176,SCHR 11.7,Stream,1,1.22,1.22,1.22,2008,2008,41.63083333,-76.6425,PA
42SRBCWQ_WQX-SCHW000.1-4076,SCHW 0.1,Stream,1,8,8,8,1985,1985,40.7175,-76.79138889,PA
42SRBCWQ_WQX-SCTT003.0-3976,SCTT 3.0,Stream,16,210,30.8,58.125625,2009,2013,39.72158,-76.33672,PA
42SRBCWQ_WQX-SEEL010.3-4276,SEEL 10.3,Stream,35,22,6,12.015428571428572,1986,2012,41.99978,-76.90292,PA
42SRBCWQ_WQX-SEEL011.4-4176,SEEL 11.3,Stream,5,22,20.5,21.38,1997,2012,41.97972222,-76.90472222,PA
42SRBCWQ_WQX-SGRC000.7-4176,SGRC 0.7,Stream,4,24.3,15,18.825,1982,2008,41.79083333,-76.46166667,PA
42SRBCWQ_WQX-SGRC015.9-4176,SGRC 15.9,Stream,4,26.1,16,20.025,1982,2008,41.75972222,-76.67388889,PA
42SRBCWQ_WQX-SGRC022.1-4176,SGRC 22.1,Stream,2,30.3,18,24.15,2001,2008,41.78944444,-76.76972222,PA
42SRBCWQ_WQX-SGRR000.4-4176,SGRR 0.4,Stream,5,11.5,4,7.092,1982,2014,41.64083333,-76.23222222,PA
42SRBCWQ_WQX-SHAD001.8-4077,SHAD 1.8,Stream,3,8.39,4,6.23,1985,2010,40.18806,-77.8575,PA
42SRBCWQ_WQX-SHAM002.7-4076,SHAM 2.7,Stream,4,16.9,10,14.35,1985,2011,40.86027778,-76.77611111,PA
42SRBCWQ_WQX-SHAV001.4-4078,SHAV 1.4,Stream,4,6.84,6,6.41,1985,2016,40.56916667,-78.04916667,PA
42SRBCWQ_WQX-SHAV010.0-4077,SHAV 10.0,Stream,2,13.6,7.26,10.43,2004,2010,40.644,-77.9306,PA
42SRBCWQ_WQX-SHAV017.0-4077,SHAV 17.0,Stream,1,14.5,14.5,14.5,2011,2011,40.69245,-77.89494,PA
42SRBCWQ_WQX-SHIK000.1-4176,SHIK 0.1,Stream,5,12.3,6,8.99,1982,2014,41.15166667,-76.14777778,PA
42SRBCWQ_WQX-SHIK004.6-4176,SHIK 4.6,Stream,4,13,6,10.45,1982,2008,41.20111111,-76.18694444,PA
42SRBCWQ_WQX-SHOB000.4-3978,SHOB 0.4,Stream,4,5.44,3.81,4.7725,2004,2011,39.9942,-78.51,PA
42SRBCWQ_WQX-SHRM002.0-4077,SHRM 2.0,Stream,4,8,4.8,5.8774999999999995,1985,2011,40.37972222,-77.08222222,PA
42SRBCWQ_WQX-SHRM027.5-4077,SHRM 27.5,Stream,4,5.64,4,4.685,1985,2011,40.35083333,-77.33583333,PA
42SRBCWQ_WQX-SHUP000.1-4078,SHUP 0.1,Stream,4,4,2.9,3.19,2004,2016,40.2239,-78.2442,PA
42SRBCWQ_WQX-SHWN004.2-4078,SHWN 4.2,Stream,2,7.56,7.07,7.3149999999999995,2004,2010,40.0384,-78.6547,PA
42SRBCWQ_WQX-SIDE000.1-4077,SIDE 0.1,Stream,6,46.9,20.5,30.286666666666665,1985,2016,40.13361111,-77.96555556,PA
42SRBCWQ_WQX-SIDE007.3-4078,SIDELING HILL,Stream,2,18.2,18.2,18.2,2016,2016,40.11819,-78.00957,PA
42SRBCWQ_WQX-SIDE013.9-4078,SIDE 13.9,Stream,3,20.14,9.72,16.453333333333333,2004,2016,40.1335,-78.088,PA
42SRBCWQ_WQX-SINK000.1-4077,SINK 0.1,Stream,1,12,12,12,1985,1985,40.85444444,-77.57388889,PA
42SRBCWQ_WQX-SINK000.3-4078,SINK 0.3,Stream,2,9.78,8.47,9.125,2004,2010,40.613,-78.1772,PA
42SRBCWQ_WQX-SINN000.2-4177,SINN0.2,Stream,4,13.1,3.7,6.5024999999999995,1983,2015,41.26111111,-77.90722222,PA
42SRBCWQ_WQX-SINN011.9-4178,SINN11.9,Stream,3,16.3,4.7,8.773333333333333,2002,2015,41.31916667,-78.08388889,PA
42SRBCWQ_WQX-SIXM000.3-4078,SIXM 0.3,Stream,4,10,4.2,6.67,2004,2016,40.1618,-78.2522,PA
42SRBCWQ_WQX-SLAB000.2-4077,SLAB0.2,Stream,1,61.6,61.6,61.6,2002,2002,40.81833333,-77.83361111,PA
42SRBCWQ_WQX-SLAK001.6-4176,SLAK 1.6,Stream,1,4.3,4.3,4.3,2015,2015,41.44743,-76.95248,PA
42SRBCWQ_WQX-SMIL000.1-4078,6MIL0.1,Stream,3,5.3,3,4.3966666666666665,1983,2009,40.94222222,-78.12472222,PA
42SRBCWQ_WQX-SMIT000.3-4177,SMIT,Stream,1,7.4,7.4,7.4,2012,2012,41.99972222,-77.06472222,PA
42SRBCWQ_WQX-SNAK002.3-4175,SNAK 2.3,Stream,22,13,5,7.216363636363637,1986,2012,41.99388889,-75.795,PA
42SRBCWQ_WQX-SNAK009.2-4175,SNAK 8.5,Stream,1,12.41,12.41,12.41,2007,2007,41.91777778,-75.84611111,PA
42SRBCWQ_WQX-SOLO000.9-4175,SOLO 0.9,Stream,6,65,27,44.36666666666667,1982,2014,41.22666667,-75.93666667,PA
42SRBCWQ_WQX-SOUT005.9-4176,SOUT 7.2,Stream,1,15.3,15.3,15.3,2012,2012,41.98888889,-76.77416667,PA
42SRBCWQ_WQX-SOUT007.6-4176,SOUT 7.6,Stream,6,55.5,12.3,29.3,1997,2012,41.98888889,-76.77416667,PA
42SRBCWQ_WQX-SOUT009.1-4176,SOUT 11.0,Stream,3,15,6.56,9.953333333333333,1997,2012,41.95472222,-76.79222222,PA
42SRBCWQ_WQX-SPRB001.9-4175,SPRB 1.9,Stream,2,44.6,25,34.8,2001,2008,41.35055556,-75.71333333,PA
42SRBCWQ_WQX-SPRG000.0-4076,SPRG 0.0,Stream,5,57,18,32.06,1985,2011,40.28361111,-76.67944444,PA
42SRBCWQ_WQX-SPRG000.2-4077,SPRG0.2,Stream,2,34.1,20,27.05,1983,2002,40.94027778,-77.78805556,PA
42SRBCWQ_WQX-SPRG000.4-4076,SPRG 0.4,Stream,1,139,139,139,2011,2011,40.242945,-76.857133,PA
42SRBCWQ_WQX-SPRG014.8-4077,SPRG14.8,Stream,1,19,19,19,2002,2002,40.82083333,-77.83222222,PA
42SRBCWQ_WQX-SPRR001.0-4078,SPRR 1.0,Stream,4,32.01,12.7,17.5275,2004,2010,40.5398,-78.4101,PA
42SRBCWQ_WQX-SPRU001.0-4078,SPRU 1.0,Stream,5,10.8,8.05,9.616,2004,2016,40.61805556,-78.12583333,PA
42SRBCWQ_WQX-SPRU010.6-4078,SPRU 10.5,Stream,1,10.8,10.8,10.8,2010,2010,40.69027778,-78.02944444,PA
42SRBCWQ_WQX-STAR000.9-4175,STAR 0.1,Stream,2,6.48,5.2,5.84,2007,2013,41.96666667,-75.57361111,PA
42SRBCWQ_WQX-STEW000.8-4177,STEW 0.9,Stream,1,10.1,10.1,10.1,2015,2015,41.21956,-77.24117,PA
42SRBCWQ_WQX-STLK000.5-4175,STLK 0.5,Stream,2,34.8,26.4,30.599999999999998,2007,2013,41.9625,-75.73944444,PA
42SRBCWQ_WQX-STMV002.6-4177,STMV 2.6,Stream,1,24,24,24,2015,2015,41.44299,-77.10505,PA
42SRBCWQ_WQX-STNK000.5-4175,STNK 0.5,Stream,3,46,36,40.13333333333333,2001,2014,41.56083333,-75.86638889,PA
42SRBCWQ_WQX-STNK016.3-4175,STNK 16.3,Stream,2,44,34.9,39.45,2001,2008,41.57555556,-75.65555556,PA
42SRBCWQ_WQX-STON000.4-4076,STON 0.4,Stream,2,1.5,1,1.25,1985,2005,40.37527778,-76.91583333,PA
42SRBCWQ_WQX-STRA001.0-4177,STRA,Stream,1,5.1,5.1,5.1,2012,2012,41.98416667,-77.23333333,PA
42SRBCWQ_WQX-STST001.0-4078,STST 1.0,Stream,4,4,2.88,3.565,1985,2016,40.48194444,-78.00388889,PA
42SRBCWQ_WQX-STST014.0-4077,STANDING STONE,Stream,1,2.8,2.8,2.8,2016,2016,40.56876,-77.87301,PA
42SRBCWQ_WQX-STST026.8-4077,STST 26.8,Stream,2,0.94,0.87,0.905,2004,2010,40.68111111,-77.79388889,PA
42SRBCWQ_WQX-STWN000.1-4176,STWN 0.1,Stream,3,10.6,7,8.276666666666667,2001,2014,41.70805556,-76.47027778,PA
42SRBCWQ_WQX-STWN009.5-4176,STWN 9.5,Stream,2,8.18,6,7.09,2001,2008,41.59,-76.43222222,PA
42SRBCWQ_WQX-SUGR002.6-4176,Sugar Run,Stream,1,11.6,11.6,11.6,2014,2014,41.626436,-76.274356,PA
42SRBCWQ_WQX-SUGR006.5-4176,SUGR 6.5,Stream,1,10.8,10.8,10.8,2014,2014,41.63661,-76.2973,PA
42SRBCWQ_WQX-SUGR022.1-4176,SUGR,Stream,1,17.1,17.1,17.1,2014,2014,41.789737,-76.768352,PA
42SRBCWQ_WQX-SURV000.3-4178,SURV0.3,Stream,4,3,2,2.5275,1983,2015,41.07666667,-78.32527778,PA
42SRBCWQ_WQX-SUSQ022.0-3976,SUSQ 22.0,Stream,6,28.6,21.8,25.283333333333335,1985,2014,39.79138889,-76.29111111,PA
42SRBCWQ_WQX-SUSQ032.0-3976,SUSQ 32.0,Stream,1,23,23,23,1985,1985,39.91416667,-76.38305556,PA
42SRBCWQ_WQX-SUSQ044.5-4076,SUSQ 44.5,Stream,39,37.9,8,18.81153846153846,1985,2015,40.02803,-76.51923,PA
42SRBCWQ_WQX-SUSQ057.0-4076,SUSQ 57.0,Stream,2,26,20,23,1985,1996,40.11777778,-76.7125,PA
42SRBCWQ_WQX-SUSQ077.0-4076,SUSQ 77.0,Stream,9,33.5,15,22.92222222222222,1985,2016,40.33583333,-76.9125,PA
42SRBCWQ_WQX-SUSQ077.1-4076,SUSQ 77B,Stream,1,20.4,20.4,20.4,2016,2016,40.33609,-76.91436,PA
42SRBCWQ_WQX-SUSQ077.2-4076,SUSQ 77C,Stream,1,27.9,27.9,27.9,2016,2016,40.3376,-76.90976,PA
42SRBCWQ_WQX-SUSQ094.0-4076,SUSQ 94,Stream,4,37.3,12,23.924999999999997,1985,2008,40.49,-76.94333333,PA
42SRBCWQ_WQX-SUSQ106.0-4076,SUSQ 106,Stream,11,324.1,9,54.22727272727273,1985,2016,40.66083333,-76.91416667,PA
42SRBCWQ_WQX-SUSQ106.1-4076,SUSQ 106B,Stream,1,41.4,41.4,41.4,2016,2016,40.64735,-76.91497,PA
42SRBCWQ_WQX-SUSQ122.0-4076,SUSQ 122,Stream,7,36,20,28.37142857142857,1985,2016,40.84138889,-76.81194444,PA
42SRBCWQ_WQX-SUSQ122.1-4076,SUSQ 122,Stream,2,37,35.3,36.15,2015,2016,40.82275,-76.83914,PA
42SRBCWQ_WQX-SUSQ126.3-4076,SUSQ125.0A,Stream,3,45,18,34.333333333333336,1982,2001,40.88027778,-76.78666667,PA
42SRBCWQ_WQX-SUSQ126.4-4076,SUSQ125.0B,Stream,1,45,45,45,2001,2001,40.88722222,-76.78944444,PA
42SRBCWQ_WQX-SUSQ134.5-4076,SUSQ 134.5,Stream,2,45,17,31,1982,1993,40.94888889,-76.66527778,PA
42SRBCWQ_WQX-SUSQ136.8-4076,SUSQ136.0,Stream,4,46,18,30.75,1982,2001,40.96222222,-76.6325,PA
42SRBCWQ_WQX-SUSQ138.0-4076,SUSQ 138,Stream,11,49,11,33.6,1985,2016,40.9422,-76.6011,PA
42SRBCWQ_WQX-SUSQ146.4-4076,SUSQ146.2,Stream,4,49,23,35,1982,2001,40.95388889,-76.46583333,PA
42SRBCWQ_WQX-SUSQ149.0-4076,SUSQ 149,Stream,6,44.3,23,38.71666666666667,1982,2008,40.9935,-76.4369,PA
42SRBCWQ_WQX-SUSQ155.9-4176,SUSQ156.0,Stream,4,50,24,34.75,1982,2001,41.02722222,-76.33305556,PA
42SRBCWQ_WQX-SUSQ157.0-4176,SUSQ 157,Stream,5,48.9,40.3,43.44,2005,2008,41.0405,-76.2945,PA
42SRBCWQ_WQX-SUSQ162.2-4176,SUSQ163.0,Stream,3,49,24,36.333333333333336,1982,2001,41.05444444,-76.22166667,PA
42SRBCWQ_WQX-SUSQ172.8-4176,SUSQ171.0,Stream,4,52,18,31.5,1982,2001,41.15333333,-76.14611111,PA
42SRBCWQ_WQX-SUSQ174.0-4176,SUSQ 174,Stream,9,49.8,19,39.56666666666667,1982,2016,41.1774,-76.1085,PA
42SRBCWQ_WQX-SUSQ181.4-4176,SUSQ181.0,Stream,4,49,16,30.25,1982,2001,41.21944444,-76.01527778,PA
42SRBCWQ_WQX-SUSQ185.0-4175,SUSQ 185.0,Stream,1,16,16,16,1982,1982,41.22944444,-75.95416667,PA
42SRBCWQ_WQX-SUSQ185.5-4175,SUSQ 185.5,Stream,1,21,21,21,1982,1982,41.23638889,-75.95166667,PA
42SRBCWQ_WQX-SUSQ187.5-4175,SUSQ190.0,Stream,4,49,25,34.25,1982,2001,41.24194444,-75.92,PA
42SRBCWQ_WQX-SUSQ188.0-4175,SUSQ 188.0,Stream,1,21,21,21,1982,1982,41.24888889,-75.90416667,PA
42SRBCWQ_WQX-SUSQ192.0-4175,SUSQ 192,Stream,4,49.6,43.1,45.725,2005,2008,41.25,-75.8845,PA
42SRBCWQ_WQX-SUSQ196.0-4175,SUSQ 196.0,Stream,1,21,21,21,1982,1982,41.31777778,-75.80944444,PA
42SRBCWQ_WQX-SUSQ201.8-4175,SUSQ198.0,Stream,4,51,20,33.75,1982,2001,41.38027778,-75.79861111,PA
42SRBCWQ_WQX-SUSQ209.1-4175,SUSQ 207,Stream,12,51,4,34.40833333333333,1982,2016,41.46027778,-75.85333333,PA
42SRBCWQ_WQX-SUSQ220.6-4175,SUSQ 219,Stream,9,50,10,40.077777777777776,1982,2008,41.53527778,-75.95972222,PA
42SRBCWQ_WQX-SUSQ222.5-4175,SUSQ 222.5,Stream,1,21,21,21,1982,1982,41.55861111,-75.98,PA
42SRBCWQ_WQX-SUSQ226.0-4176,SUSQ 226.0,Stream,1,21,21,21,1982,1982,41.53888889,-76.00694444,PA
42SRBCWQ_WQX-SUSQ228.0-4176,SUSQ 228.0,Stream,2,42,20,31,1982,1993,41.53388889,-76.03611111,PA
42SRBCWQ_WQX-SUSQ228.5-4176,SUSQ 228.5,Stream,1,16,16,16,1982,1982,41.53833333,-76.035,PA
42SRBCWQ_WQX-SUSQ231.8-4176,SUSQ230.0,Stream,10,53,2,28.6,1982,2016,41.57555556,-76.05861111,PA
42SRBCWQ_WQX-SUSQ234.0-4176,SUSQ 234,Stream,4,48,43.3,45.275,2005,2008,41.6099,-76.0509,PA
42SRBCWQ_WQX-SUSQ253.7-4176,SUSQ 254.0,Stream,8,48.7,19,38.9,1982,2008,41.66777778,-76.27833333,PA
42SRBCWQ_WQX-SUSQ269.0-4176,SUSQ 269.0,Stream,3,41,19,27.666666666666668,1982,1993,41.77055556,-76.39694444,PA
42SRBCWQ_WQX-SUSQ272.7-4176,SUSQ271.0,Stream,9,52,16,36.21111111111111,1982,2016,41.76305556,-76.4375,PA
42SRBCWQ_WQX-SUSQ273.0-4176,SUSQ 273.0,Stream,4,44,18,30.575,1982,2009,41.76722222,-76.44,PA
42SRBCWQ_WQX-SUSQ279.0-4176,SUSQ 279,Stream,1,20,20,20,1984,1984,41.84916667,-76.49611111,PA
42SRBCWQ_WQX-SUSQ280.6-4176,SUSQ280.0,Stream,2,56,47,51.5,1993,2001,41.84916667,-76.49694444,PA
42SRBCWQ_WQX-SUSQ289.1-4176,SUSQ 289.1,Stream,39,46.7,9,20.816410256410258,1982,2013,41.98111111,-76.5075,PA
42SRBCWQ_WQX-SUSQ300.0-4176,SUSQ 10,Stream,6,43.9,16.1,25.55,2002,2016,41.98194444,-76.50638889,PA
42SRBCWQ_WQX-SUSQ350.0-4175,SUSQ 4,Stream,1,18.2,18.2,18.2,2002,2002,41.96361111,-75.73777778,PA
42SRBCWQ_WQX-SUSQ356.0-4175A,SUSQ 3,Stream,3,24.3,17.9,21.433333333333334,2002,2008,41.96111111,-75.66194444,PA
42SRBCWQ_WQX-SUSQ356.0-4175B,SUSQ 359,Stream,4,25.3,9,16.425,1984,2014,41.95722222,-75.59111111,PA
42SRBCWQ_WQX-SUSQ359.0-4175,SUSQ 2,Stream,1,18.7,18.7,18.7,2002,2002,41.99111111,-75.60222222,PA
42SRBCWQ_WQX-SWAT002.3-4076,SWAT 2.3,Stream,5,48.5,17,31.88,1985,2011,40.20416667,-76.71416667,PA
42SRBCWQ_WQX-SWAT021.7-4076,SWAT 21.7,Stream,4,18.3,10,13.125,1985,2011,40.35333333,-76.61638889,PA
42SRBCWQ_WQX-SWAT039.0-4076,SWAT 39.0,Stream,4,9.2,6,8.3,1985,2011,40.45611111,-76.50583333,PA
42SRBCWQ_WQX-SWAT056.0-4076,SWAT 56.0,Stream,4,12.4,8,10.825,1996,2011,40.54861111,-76.38027778,PA
42SRBCWQ_WQX-SWIT000.1-4078,WHIT0.1,Stream,3,6.6,4.7,5.963333333333333,2002,2009,40.77,-78.55083333,PA
42SRBCWQ_WQX-TANG000.2-4177,TANG0.2,Stream,2,1.3,0.71,1.005,2002,2009,41.17611111,-77.54972222,PA
42SRBCWQ_WQX-TEAC000.1-4077,TEAC 0.1,Stream,2,20.7,17.2,18.95,2004,2010,40.66310287,-77.59727973,PA
42SRBCWQ_WQX-THRS000.2-4078,THRS0.2,Stream,4,13.1,10.8,12.075,2005,2006,40.171806,-78.378509,PA
42SRBCWQ_WQX-TIOG016.3-4177,TIOG 16.3,Stream,3,9,7.63,8.21,1997,2012,41.95777778,-77.11583333,PA
42SRBCWQ_WQX-TIOG029.8-4177,TIOG 29.8,Stream,3,10,6.7,8.01,1997,2012,41.805,-77.08194444,PA
42SRBCWQ_WQX-TIOG035.4-4177,TIOG 35.4,Stream,3,5.4,4.83,5.076666666666667,1997,2012,41.73083333,-77.08277778,PA
42SRBCWQ_WQX-TIOG039.6-4177,TIOG 39.6,Stream,3,4,1.99,2.763333333333333,1997,2012,41.67805556,-77.0675,PA
42SRBCWQ_WQX-TIOG042.3-4177,TIOG 42.3,Stream,2,1.46,1,1.23,1997,2006,41.65388889,-77.03194444,PA
42SRBCWQ_WQX-TIOG049.2-4176,TIOG 49.2,Stream,2,2.56,1,1.78,1997,2006,41.69555556,-76.93194444,PA
42SRBCWQ_WQX-TIPT001.3-4078,TIPT 1.3,Stream,2,3.85,3.55,3.7,2004,2010,40.647,-78.3209,PA
42SRBCWQ_WQX-TIPT003.0-4078,TIPT 3.0,Stream,2,2.9,2.8,2.8499999999999996,2011,2011,40.65573,-78.32847,PA
42SRBCWQ_WQX-TMIL000.1-4177,2MIL0.1,Stream,2,1.1,0.55,0.8250000000000001,2009,2015,41.31611111,-77.85916667,PA
42SRBCWQ_WQX-TOBY000.2-4175,TOBY 0.2,Stream,5,60,27,47.7,1982,2014,41.25388889,-75.91111111,PA
42SRBCWQ_WQX-TOBY005.1-4175,TOBY 5.1,Stream,4,64.5,18,46.875,1982,2008,41.3025,-75.93,PA
42SRBCWQ_WQX-TOMH001.4-4076,TOMH 1.4,Stream,1,44.1,44.1,44.1,2014,2014,40.91402,-76.1876,PA
42SRBCWQ_WQX-TOMH003.2-4076,TOMH 3.2,Stream,4,49.4,26,40.675,2001,2014,40.92694444,-76.17666667,PA
42SRBCWQ_WQX-TOMJ000.4-4176,TOMJ,Stream,1,12.8,12.8,12.8,2014,2014,41.781321,-76.607231,PA
42SRBCWQ_WQX-TOWA018.1-4176,TOWA 18.1,Stream,1,12,12,12,2014,2014,41.67224,-76.7078,PA
42SRBCWQ_WQX-TOWA026.1-4176,TOWA 26.1,Stream,1,18.2,18.2,18.2,2014,2014,41.65497,-76.8381,PA
42SRBCWQ_WQX-TRDL000.0-4077,TRDL 0.0,Stream,4,75.1,30,44.8,1985,2011,40.25138889,-77.00777778,PA
42SRBCWQ_WQX-TROT000.1-4178,TROT0.1,Stream,3,3,1.7,2.1666666666666665,1983,2009,41.06972222,-78.35944444,PA
42SRBCWQ_WQX-TROW001.8-4175,TROW 1.8,Stream,6,8,3.58,4.708333333333334,1987,2012,41.99527778,-75.735,PA
42SRBCWQ_WQX-TRUP000.4-4177,TRUP 0.4,Stream,3,20,13.5,16.03333333333333,1997,2012,41.9575,-77.44444444,PA
42SRBCWQ_WQX-TRUP004.5-4177,TRUP 4.5,Stream,19,34.2,8.4,19.723157894736843,1998,2012,41.99371,-77.49222,PA
42SRBCWQ_WQX-TSPC000.1-4077,TSPC 0.1,Stream,14,15.5,6,10.36,1985,2016,40.21111111,-77.935,PA
42SRBCWQ_WQX-TSPR000.1-4078,TSPR 0.1,Stream,2,13.13,12.6,12.865,2004,2010,40.1717,-78.3807,PA
42SRBCWQ_WQX-TUNK001.8-4175,TUNK 1.8,Stream,4,28,3,16.575,1982,2008,41.54194444,-75.92305556,PA
42SRBCWQ_WQX-TUNK011.9-4175,TUNK 11.9,Stream,5,24,2,14.72,1982,2008,41.60444444,-75.82472222,PA
42SRBCWQ_WQX-TUNK020.3-4175,TUNK 20.3,Stream,2,32,21.4,26.7,2001,2008,41.64805556,-75.71805556,PA
42SRBCWQ_WQX-TUSC000.5-4176,TUSC 0.5,Stream,2,11.7,8.99,10.344999999999999,2008,2014,41.6421,-76.1463,PA
42SRBCWQ_WQX-TUSC000.6-4077,TUSC 0.6,Stream,6,6.3,4,4.79,1985,2016,40.52666667,-77.38388889,PA
42SRBCWQ_WQX-TUSC022.5-4077,TUSC 22.5,Stream,3,3.89,3,3.5533333333333332,1985,2010,40.41916667,-77.56333333,PA
42SRBCWQ_WQX-TUSC039.3-4077,TUSC 39.3,Stream,4,3.71,3,3.26,1985,2010,40.27166667,-77.73472222,PA
42SRBCWQ_WQX-TWND000.7-4176,TWND 0.7,Stream,5,8.3,6,7.5920000000000005,1982,2014,41.74111111,-76.43277778,PA
42SRBCWQ_WQX-TWND016.9-4176,TWND 16.9,Stream,4,17,14,15.35,1982,2008,41.68027778,-76.67611111,PA
42SRBCWQ_WQX-TWND027.3-4176,TWND 27.3,Stream,2,17,16,16.5,2001,2008,41.64972222,-76.85361111,PA
42SRBCWQ_WQX-UCFR000.8-4078,UNT COFFEE,Stream,1,1.3,1.3,1.3,2016,2016,40.34065,-78.20667,PA
42SRBCWQ_WQX-UCLB000.6-4176,UCLB 0.6,Stream,1,5,5,5,2015,2015,41.11834,-76.71709,PA
42SRBCWQ_WQX-UJUN001.7-4077,UNT JUN,Stream,1,1.6,1.6,1.6,2016,2016,40.39409,-77.79616,PA
42SRBCWQ_WQX-ULSC000.0-4076,ULSC 0.0,Stream,1,5,5,5,1985,1985,40.55611111,-76.37694444,PA
42SRBCWQ_WQX-UMDC000.4-4176,UMDC 0.4,Stream,1,5.9,5.9,5.9,2015,2015,41.07859,-76.61464,PA
42SRBCWQ_WQX-UMDR000.2-4176,UMDR 0.2,Stream,1,6.7,6.7,6.7,2014,2014,41.12296,-76.4502,PA
42SRBCWQ_WQX-UNJN000.1-4175,UNJN 0.1,Stream,1,13.9,13.9,13.9,2014,2014,41.40197,-75.7292,PA
42SRBCWQ_WQX-UNTA000.5-4176,UNTA0.1,Stream,1,17,17,17,2001,2001,41.22333333,-76.11194444,PA
42SRBCWQ_WQX-UPRT000.5-4177,UPRT 0.5,Stream,1,1.3,1.3,1.3,2015,2015,41.66574,-77.90096,PA
42SRBCWQ_WQX-USNK000.1-4078,UNT SINKING,Stream,1,10.5,10.5,10.5,2016,2016,40.583251,-78.250127,PA
42SRBCWQ_WQX-USPR003.4-4176,USPR 3.4,Stream,1,1.4,1.4,1.4,2015,2015,41.17767,-76.95337,PA
42SRBCWQ_WQX-USUS000.5-4176,USUS 0.5,Stream,2,50.6,50.5,50.55,2014,2014,41.02265,-76.3717,PA
42SRBCWQ_WQX-USWB000.4-4178,USWB 0.4,Stream,1,4.1,4.1,4.1,2015,2015,41.72162,-78.02805,PA
42SRBCWQ_WQX-UTBR000.5-4176,UTBR 0.5,Stream,1,14.5,14.5,14.5,2014,2014,41.82513,-76.5614,PA
42SRBCWQ_WQX-UTHN001.9-4176,UTHN 1.9,Stream,1,12.3,12.3,12.3,2014,2014,41.22607,-76.0543,PA
42SRBCWQ_WQX-UTSR004.4-4078,UNT 3 SPR,Stream,1,1.7,1.7,1.7,2016,2016,40.19953,-78.44782,PA
42SRBCWQ_WQX-UTST000.4-4176,UTST 0.4,Stream,1,4.4,4.4,4.4,2014,2014,41.58014,-76.3922,PA
42SRBCWQ_WQX-UTUB001.0-4078,UNT TUB M,Stream,1,243,243,243,2016,2016,40.01097,-78.23272,PA
42SRBCWQ_WQX-WAPP002.6-4176,WAPP 2.6,Stream,6,13.5,5.7,9.58,2007,2013,41.99527778,-76.34527778,PA
42SRBCWQ_WQX-WBCO001.0-4177,WBCO,Stream,1,10.9,10.9,10.9,2012,2012,41.99277778,-77.64583333,PA
42SRBCWQ_WQX-WBEV000.8-3976,WBEV 0.8,Stream,1,16,16,16,1985,1985,39.92722222,-76.97222222,PA
42SRBCWQ_WQX-WBOC004.3-3976,WBOC 4.3,Stream,4,18.9,15,16.95,1985,2011,39.83111111,-76.10055556,PA
42SRBCWQ_WQX-WBPC003.5-4177,WBPC3.5,Stream,3,3.2,1.42,2.0533333333333332,2002,2009,41.7125,-77.69916667,PA
42SRBCWQ_WQX-WBRN000.7-4176,WBRN 0.7,Stream,2,11.6,8,9.8,2001,2008,41.1525,-76.53666667,PA
42SRBCWQ_WQX-WBRR003.2-4176,WBRR 3.2,Stream,4,11.8,7,8.7,1982,2008,41.055,-76.3275,PA
42SRBCWQ_WQX-WBSR000.0-4076,WBSR0.0,Stream,5,12.3,9,10.576,1982,2009,40.88388889,-76.79833333,PA
42SRBCWQ_WQX-WBSR005.0-4076,WBSR 5,Stream,2,22.1,16,19.05,2015,2016,40.94142,-76.86531,PA
42SRBCWQ_WQX-WBSR007.5-4076,WBSR7.5,Stream,12,23,9.86,14.820833333333333,1983,2014,40.96527778,-76.87666667,PA
42SRBCWQ_WQX-WBSR015.0-4176,WBSR15.0,Stream,2,12.1,9.32,10.71,2002,2009,41.07055556,-76.85416667,PA
42SRBCWQ_WQX-WBSR016.0-4176,WBSR 16.0,Stream,2,12,11,11.5,1983,1983,41.107778,-76.89,PA
42SRBCWQ_WQX-WBSR023.0-4176,WBSR23.0,Stream,4,12.2,8.87,10.7675,1983,2009,41.16694444,-76.87027778,PA
42SRBCWQ_WQX-WBSR037.5-4176,WBSR37.5,Stream,3,17.7,9,13.2,1983,2009,41.24472222,-76.96277778,PA
42SRBCWQ_WQX-WBSR045.3-4177,WBSR45.3,Stream,9,17.6,7.54,12.515555555555556,1983,2016,41.22583333,-77.10722222,PA
42SRBCWQ_WQX-WBSR055.0-4177,WBSR55.0,Stream,3,15.3,9.74,12.013333333333334,1983,2009,41.20361111,-77.24222222,PA
42SRBCWQ_WQX-WBSR064.0-4177,WBSR64.0,Stream,5,13,8,9.786,1983,2009,41.16527778,-77.36888889,PA
42SRBCWQ_WQX-WBSR069.0-4177,WBSR 69.0,Stream,1,7.4,7.4,7.4,2015,2015,41.13858,-77.43149,PA
42SRBCWQ_WQX-WBSR075.0-4177,WBSR75.0,Stream,3,10.4,6.81,8.07,1983,2009,41.16805556,-77.52,PA
42SRBCWQ_WQX-WBSR083.0-4177,WBSR83.0,Stream,4,9.5,7.98,8.870000000000001,1983,2009,41.2375,-77.60694444,PA
42SRBCWQ_WQX-WBSR085.0-4177,WBSR 85,Stream,3,12.4,11.2,12,2014,2016,41.319686,-77.632478,PA
42SRBCWQ_WQX-WBSR091.0-4177,WBSR91.0,Stream,4,9.6,6.63,7.98,1983,2009,41.33,-77.64722222,PA
42SRBCWQ_WQX-WBSR097.0-4177,WBSR97.0,Stream,5,12,7,9.474,1983,2015,41.32638889,-77.74583333,PA
42SRBCWQ_WQX-WBSR103.8-4177,WBSR103.8,Stream,3,9.2,5,7.3999999999999995,1983,2015,41.30055556,-77.83805556,PA
42SRBCWQ_WQX-WBSR110.0-4177,WBSR110.0,Stream,7,15.8,7,13.257142857142858,1983,2016,41.26083333,-77.90111111,PA
42SRBCWQ_WQX-WBSR131.0-4178,WBSR131.0,Stream,4,16.7,2,10.85,1983,2015,41.11722222,-78.10833333,PA
42SRBCWQ_WQX-WBSR142.0-4178,WBSR142.0,Stream,4,18.1,8,11.725000000000001,1983,2015,41.05722222,-78.15722222,PA
42SRBCWQ_WQX-WBSR148.9-4178,WBS7.0,Stream,3,21.7,16.2,18.766666666666666,2012,2016,41.07805556,-78.23527778,PA
42SRBCWQ_WQX-WBSR162.0-4178,WBSR162.0,Stream,2,19.4,14,16.7,1983,2002,41.06638889,-78.35972222,PA
42SRBCWQ_WQX-WBSR164.2-4178,WBSR164.2,Stream,4,20,9,12.85,1983,2015,41.04777778,-78.38194444,PA
42SRBCWQ_WQX-WBSR171.0-4178,WBSR 171,Stream,1,15,15,15,1983,1983,41.0252778,-78.403333,PA
42SRBCWQ_WQX-WBSR172.3-4178,WBSR172.3,Stream,3,15.4,12.6,13.633333333333333,2002,2015,41.0325,-78.43361111,PA
42SRBCWQ_WQX-WBSR175.0-4178,WBSR175.0,Stream,4,17,10.6,13.65,1983,2009,41.00444444,-78.45694444,PA
42SRBCWQ_WQX-WBSR181.4-4078,WBSR181.4,Stream,4,15,11.3,12.95,1983,2015,40.97416667,-78.51972222,PA
42SRBCWQ_WQX-WBSR191.0-4078,WBSR191.0,Stream,4,13.2,10,12.075,1983,2009,40.92277778,-78.57555556,PA
42SRBCWQ_WQX-WBSR200.0-4078,WBSR200.0,Stream,5,13.8,11.4,12.360000000000001,1983,2015,40.89472222,-78.67638889,PA
42SRBCWQ_WQX-WBSR208.0-4078,WBSR208.0,Stream,4,15.2,12.4,13.9,1983,2009,40.87083333,-78.75527778,PA
42SRBCWQ_WQX-WBSR214.0-4078,WBSR214.0,Stream,4,298,10,84.6,1983,2009,40.81611111,-78.78527778,PA
42SRBCWQ_WQX-WBSR224.0-4078,WBSR224.0,Stream,5,344,16.4,85.6,1983,2015,40.72722222,-78.80527778,PA
42SRBCWQ_WQX-WBSR235.0-4078,WBSR235.0,Stream,5,390,9,91.82,1983,2009,40.59833333,-78.74444444,PA
42SRBCWQ_WQX-WBSR242.2-4078,WBS30.0,Stream,1,33.9,33.9,33.9,2015,2015,40.59333333,-78.73527778,PA
42SRBCWQ_WQX-WCON002.9-4076,WCON 2.9,Stream,4,26.4,12,18.25,1985,2011,40.08222222,-76.72027778,PA
42SRBCWQ_WQX-WCON020.4-4076,WCON 20.4,Stream,6,24.6,10,15.8,1985,2011,40.09361111,-76.84777778,PA
42SRBCWQ_WQX-WCON035.5-4076,WCON 35.5,Stream,4,22.3,11,16.45,1985,2011,40.005,-76.9225,PA
42SRBCWQ_WQX-WCON056.3-3977,WCON 56.3,Stream,5,16.6,7,10.66,1985,2011,39.89861111,-77.08444444,PA
42SRBCWQ_WQX-WCON066.5-3977,WCON 66.5,Stream,5,16.6,6,11.42,1985,2011,39.9275,-77.19027778,PA
42SRBCWQ_WQX-WDHC001.9-4176,WDHC1.9,Stream,4,5,3.8,4.175,1983,2015,41.10222222,-76.91416667,PA
42SRBCWQ_WQX-WEST002.0-4178,WEST2.0,Stream,2,14,5.12,9.56,2002,2009,41.49444444,-78.275,PA
42SRBCWQ_WQX-WFSH003.2-4176,WFSH 3.2,Stream,1,0.56,0.56,0.56,2008,2008,41.30444444,-76.39861111,PA
42SRBCWQ_WQX-WHIT000.1-4078,WHIT 0.1,Stream,1,4,4,4,1983,1983,40.77083333,-78.55194444,PA
42SRBCWQ_WQX-WHIT001.0-4176,WHIT,Stream,1,13,13,13,2012,2012,41.9998328,-76.7433132,PA
42SRBCWQ_WQX-WICO000.3-4076,WICO 0.3,Stream,4,9.84,7,8.185,1985,2011,40.53583333,-76.96388889,PA
42SRBCWQ_WQX-WICO027.0-4076,WICO 27.0,Stream,1,7.4,7.4,7.4,2011,2011,40.568067,-76.714096,PA
42SRBCWQ_WQX-WILL000.4-4077,WILL 0.4,Stream,13,3.6,2,2.743846153846154,1985,2014,40.43111111,-77.58333333,PA
42SRBCWQ_WQX-WILS000.5-4177,WILS0.5,Stream,3,11.4,6.76,8.32,2002,2015,41.59805556,-77.29666667,PA
42SRBCWQ_WQX-WLWR005.2-4175,WLWR 5.2,Stream,2,7.03,5,6.015000000000001,2001,2008,41.785,-75.49944444,PA
42SRBCWQ_WQX-WMAH002.2-4076,WMAH 2.2,Stream,1,7,7,7,1985,1985,40.64166667,-76.96861111,PA
42SRBCWQ_WQX-WMHT002.2-4076,WMHT 2.2,Stream,4,7.8,6,7.2075,1996,2011,40.64666667,-76.96638889,PA
42SRBCWQ_WQX-WMSH001.2-4176,WMSH 1.2,Stream,2,10,8.96,9.48,2001,2008,41.63166667,-76.00138889,PA
42SRBCWQ_WQX-WOLF002.7-4177,WOLF,Stream,4,5.5,1.8,2.8,2016,2016,41.112231,-77.896004,PA
42SRBCWQ_WQX-WTDR003.0-4176,WTDR 0.5,Stream,1,4,4,4,1983,1983,41.0736111,-76.90333,PA
42SRBCWQ_WQX-WTDR003.7-4176,WTDR3.7,Stream,2,5.37,3.2,4.285,2002,2009,41.07416667,-76.92944444,PA
42SRBCWQ_WQX-WWLP000.2-4176,WWP0.1,Stream,4,39,16,26.125,1982,2014,41.07111111,-76.13305556,PA
42SRBCWQ_WQX-WWLP006.5-4176,WWLP6.4,Stream,3,60,21,36.666666666666664,1982,2001,41.06944444,-76.05388889,PA
42SRBCWQ_WQX-WWLP017.0-4175,WWP12.0,Stream,1,60,60,60,2001,2001,41.14277778,-75.91666667,PA
42SRBCWQ_WQX-WYAL000.4-4176,WYAL 0.4,Stream,4,90,11,42.225,1982,2008,41.66490438,-76.26164115,PA
42SRBCWQ_WQX-WYAL014.6-4176,WYL16.2,Stream,3,12,9,10.666666666666666,1982,2001,41.77388889,-76.26138889,PA
42SRBCWQ_WQX-WYKF004.8-4178,WYKF 4.8,Stream,1,2.3,2.3,2.3,2015,2015,41.27553,-78.14123,PA
42SRBCWQ_WQX-WYSX000.4-4176,WYSX 0.4,Stream,4,10,9,9.47,1982,2008,41.77916667,-76.38611111,PA
42SRBCWQ_WQX-WYSX003.3-4176,WYSX 3.3,Stream,1,9,9,9,2014,2014,41.81382,-76.3606,PA
42SRBCWQ_WQX-WYSX006.5-4176,WYSX 6.5,Stream,5,13.1,9,11.42,1982,2008,41.85611111,-76.34083333,PA
42SRBCWQ_WQX-YELL000.1-4078,YELL 0.1,Stream,1,8,8,8,1985,1985,40.13805556,-78.27166667,PA
42SRBCWQ_WQX-YELL003.5-4078,YELL 3.5,Stream,3,11.05,8.24,9.83,2004,2016,40.12472222,-78.30472222,PA
42SRBCWQ_WQX-YELL009.1-4078,YELL 9.1,Stream,2,11.82,11.6,11.71,2004,2010,40.1884,-78.3756,PA
42SRBCWQ_WQX-YELL010.1-4078,YELL10.1,Stream,5,11.3,8.43,9.754,2005,2006,40.157603,-78.368141,PA
42SRBCWQ_WQX-YELL012.0-4078,YELL 12.0,Stream,2,17.78,17.3,17.54,2004,2010,40.2316,-78.3706,PA
42SRBCWQ_WQX-YELL012.9-4078,YELL12.9,Stream,4,11.1,9.18,9.942499999999999,2005,2006,40.1584,-78.3701,PA
42SRBCWQ_WQX-YGWO000.5-4177,YGWO0.5,Stream,3,3,1.4,2.0666666666666664,1983,2015,41.34972222,-77.69833333,PA
42SRBCWQ_WQX-YGWO004.5-4177,YGWO4.5,Stream,1,1.3,1.3,1.3,2002,2002,41.40138889,-77.68472222,PA
42SRBCWQ_WQX-YLBR000.1-4077,YLBR0.1,Stream,1,156,156,156,2011,2011,40.224322,-76.8607,PA
42SRBCWQ_WQX-YLBR003.4-4076,YLBR 3.4,Stream,4,20.8,12,16.65,1985,2005,40.22472222,-76.89833333,PA
42SRBCWQ_WQX-YLBR035.7-4077,YLBR 35.7,Stream,5,5,2,3.46,1985,2011,40.13694444,-77.19555556,PA
42SRBCWQ_WQX-YOST000.3-4177,YOST 0.3,Stream,1,1.8,1.8,1.8,2015,2015,41.22307,-77.93086,PA
CBP_WQX-WQN0203,WQN0203,Stream,69,40.518,9.072,22.383095652173914,2012,2016,40.8515,-76.80709,PA
CBP_WQX-WQN0259,WQN0259,Stream,75,20.89,6.956,15.463393333333334,2012,2016,39.77302,-76.3162,PA
CBP_WQX-WQN0283,WQN0283,Stream,13,161,59.9,101.65384615384616,2012,2013,40.24276,-76.85709,PA
CBP_WQX-WQN0284,WQN0284,Stream,81,37.962,8.558,25.604074074074074,2012,2016,40.00917,-76.16222,PA
CBP_WQX-WQN0285,WQN0285,Stream,85,66.4,7.351,40.680682352941176,2012,2016,40.34239,-76.5611,PA
CBP_WQX-WQN0286,WQN0286,Stream,83,274,13.078,57.09832771084337,2012,2016,40.05226,-76.65446,PA
CBP_WQX-WQN0462,WQN0462,Stream,76,72.5,6.077,19.97379342105263,2012,2016,40.97459,-76.80012,PA
DRBC-1418 ICP,Delaware River at Washington Crossing Bridge,Stream,35,24.833333,10.8,17.841333314285713,2004,2011,40.295278,-74.868889,PA
DRBC-1463 BCP,Pidcock Creek at BHWP Stone Bridge,Stream,21,28.5,1.7,21.408571428571427,2009,2011,40.328961,-74.945116,PA
DRBC-1554 ICP,Delaware River at Bull's Island Foot Bridge,Stream,25,23.833333,11.4,18.49106664,2004,2011,40.4075,-75.03778,PA
DRBC-1556 BCP,Paunnacussing Creek at Rt 32,Stream,18,36.9,17,29.231296277777776,2009,2011,40.4076,-75.0416,PA
DRBC-1570 BCP,Tohickon Creek at aqueduct below Rt 32,Stream,26,44.6,15.2,30.264487153846154,2004,2011,40.42306,-75.06667,PA
DRBC-1616 BCP,Tinicum Creek above Rt 32,Stream,15,20.6,10.233333,15.6064444,2009,2011,40.4857,-75.0725,PA
DRBC-1737 BCP,Cooks Creek at Red Bridge Rd,Stream,27,17.8,7.9,12.07037037037037,2004,2011,40.58737,-75.21157,PA
DRBC-1748 ICP,Delaware River at Riegelsville Bridge,Stream,26,37.5,8.7,18.391794846153847,2004,2011,40.59389,-75.19111,PA
DRBC-1837 BCP,Lehigh River at Rt 611,Stream,56,38.871,8.2,26.86347025,2004,2017,40.66917,-75.23667,PA
DRBC-1838 ICP,Delaware River at Northampton St Bridge,Stream,25,20.6,8.9,15.606266680000001,2004,2011,40.69111,-75.20417,PA
DRBC-1841 BCP,Bushkill Creek (Easton) at Rt 611,Stream,41,105.933333,19.466667,31.75780487804878,2004,2011,40.695767,-75.205612,PA
DRBC-1891 ICP,Delaware River at Sandt's Eddy Access,Stream,52,24,0.026,15.410935903846154,2009,2013,40.758252,-75.187719,PA
DRBC-1907 BCP,Martins Creek at Little Creek Rd,Stream,42,43.333333,8.3,23.1429365,2004,2011,40.78472,-75.18472,PA
DRBC-1978 ICP,Delaware River at Belvidere Bridge,Stream,28,19.6,9,14.19369042857143,2004,2011,40.82889,-75.085,PA
DRBC-2095 BCP,Slateford Creek at National Park Drive,Stream,32,10.733333,0.021,6.77239584375,2011,2013,40.946735,-75.115074,PA
DRBC-2130A BCP,Brodhead Creek at River Road,Stream,66,46.935,4.2,27.014757575757574,2006,2015,40.99349,-75.13761,PA
DRBC-2130B BCP,Marshalls Creek at DWGNRA Boundary,Stream,65,61.833333,4.566667,19.336010261538462,2006,2015,40.998885,-75.137717,PA
DRBC-2269A BCP,Bushkill Creek at DWGNRA Boundary,Stream,41,14.033333,2.6,6.103821219512195,2008,2011,41.0882,-75.0379,PA
DRBC-2269A2 MCP,Bushkill Creek below WWTP,Stream,31,10.8,0.024,6.663311903225806,2011,2013,41.09166,-75.00283,PA
DRBC-2269B BCP,Little Bushkill Creek at DWGNRA Boundary,Stream,42,9.1,5,7.187142928571428,2008,2011,41.097731,-75.003818,PA
DRBC-2304 BCP,Toms Creek at DWGNRA Boundary,Stream,10,27.78,12.54,15.172,2008,2008,41.152203,-74.954079,PA
DRBC-2364 BCP,Hornbecks Creek at DWGNRA Boundary,Stream,10,53.1,13.41,31.113,2008,2008,41.196053,-74.909046,PA
DRBC-2392 BCP,Dingmans Creek at DWGNRA Boundary,Stream,10,17.8,12.06,15.727,2008,2008,41.238222,-74.9172,PA
DRBC-2403 BCP,Adams Creek at DWGNRA Boundary,Stream,10,17.1,13.79,15.546,2008,2008,41.2525,-74.8825,PA
DRBC-2439 BCP,Raymondskill Creek at DWGNRA boundary,Stream,10,26.4,19.87,24.703,2008,2008,41.305771,-74.851508,PA
DRBC-2470 BCP,Sawkill Creek at DWGNRA Boundary,Stream,10,32.4,20.7,26.834,2008,2008,41.316859,-74.79922,PA
DRBC-2473 BCP,Vandermark Ck at Rt 209,Stream,10,23.7,11.5,18.407,2008,2008,41.325,-74.796944,PA
